[
    {  "label" : "樫田小学校",  "address" : "高槻市大字田能小字岡崎６",  "telephone" : "072-688-9237",  "fax" : "072-688-9150",  "areacapa" : "560",  "peoplecapa" : "339",  "Category1" : "避難所",  "Category2" : "家屋の倒壊等により自宅で生活できなくなった被災者が一定期間滞在するための場所　※避難所は、緊急避難場所を兼ねます。",  "lat" : "34.955586",  "lng" : "135.588992",  "homepage" : "http://www.takatsuki-osk.ed.jp/kashida/",  },
    {  "label" : "阿武山小学校",  "address" : "高槻市阿武野二丁目１－２",  "telephone" : "072-693-3251",  "fax" : "072-693-3254",  "areacapa" : "2507",  "peoplecapa" : "1519",  "Category1" : "避難所",  "Category2" : "家屋の倒壊等により自宅で生活できなくなった被災者が一定期間滞在するための場所　※避難所は、緊急避難場所を兼ねます。",  "lat" : "34.860301",  "lng" : "135.576761",  "homepage" : "http://www.takatsuki-osk.ed.jp/abuyamasyo/",  },
    {  "label" : "土室小学校",  "address" : "高槻市上土室六丁目１０－１",  "telephone" : "072-694-7273",  "fax" : "072-694-7275",  "areacapa" : "2315",  "peoplecapa" : "1403",  "Category1" : "避難所",  "Category2" : "家屋の倒壊等により自宅で生活できなくなった被災者が一定期間滞在するための場所　※避難所は、緊急避難場所を兼ねます。",  "lat" : "34.848413",  "lng" : "135.577276",  "homepage" : "http://www.takatsuki-osk.ed.jp/hamuro/",  },
    {  "label" : "南平台小学校",  "address" : "高槻市南平台五丁目２０－１",  "telephone" : "072-695-5751",  "fax" : "072-695-5752",  "areacapa" : "2251",  "peoplecapa" : "1364",  "Category1" : "避難所",  "Category2" : "家屋の倒壊等により自宅で生活できなくなった被災者が一定期間滞在するための場所　※避難所は、緊急避難場所を兼ねます。",  "lat" : "34.862289",  "lng" : "135.590537",  "homepage" : "http://www.takatsuki-osk.ed.jp/nanpeidai/",  },
    {  "label" : "郡家小学校",  "address" : "高槻市郡家新町６８－１",  "telephone" : "072-683-1881",  "fax" : "072-683-1883",  "areacapa" : "2315",  "peoplecapa" : "1403",  "Category1" : "避難所",  "Category2" : "家屋の倒壊等により自宅で生活できなくなった被災者が一定期間滞在するための場所　※避難所は、緊急避難場所を兼ねます。",  "lat" : "34.851337",  "lng" : "135.596759",  "homepage" : "http://www.takatsuki-osk.ed.jp/gunge/",  },
    {  "label" : "阿武野小学校",  "address" : "高槻市氷室町四丁目４－５",  "telephone" : "072-694-4666",  "fax" : "072-694-4669",  "areacapa" : "2646",  "peoplecapa" : "1603",  "Category1" : "避難所",  "Category2" : "家屋の倒壊等により自宅で生活できなくなった被災者が一定期間滞在するための場所　※避難所は、緊急避難場所を兼ねます。",  "lat" : "34.851759",  "lng" : "135.587962",  "homepage" : "http://www.takatsuki-osk.ed.jp/abunosyo/",  },
    {  "label" : "川西小学校",  "address" : "高槻市川西町一丁目３４－７",  "telephone" : "072-681-5620",  "fax" : "072-681-5769",  "areacapa" : "1817",  "peoplecapa" : "1101",  "Category1" : "避難所",  "Category2" : "家屋の倒壊等により自宅で生活できなくなった被災者が一定期間滞在するための場所　※避難所は、緊急避難場所を兼ねます。",  "lat" : "34.851079",  "lng" : "135.604078",  "homepage" : "http://www.takatsuki-osk.ed.jp/kawasyo/",  },
    {  "label" : "清水小学校",  "address" : "高槻市宮之川原四丁目２０－１",  "telephone" : "072-688-6517",  "fax" : "072-688-6553",  "areacapa" : "2468",  "peoplecapa" : "1495",  "Category1" : "避難所",  "Category2" : "家屋の倒壊等により自宅で生活できなくなった被災者が一定期間滞在するための場所　※避難所は、緊急避難場所を兼ねます。",  "lat" : "34.865951",  "lng" : "135.600622",  "homepage" : "http://www.takatsuki-osk.ed.jp/shimizu/",  },
    {  "label" : "安岡寺小学校",  "address" : "高槻市安岡寺町一丁目６０－１",  "telephone" : "072-687-9139",  "fax" : "072-687-9140",  "areacapa" : "2443",  "peoplecapa" : "1480",  "Category1" : "避難所",  "Category2" : "家屋の倒壊等により自宅で生活できなくなった被災者が一定期間滞在するための場所　※避難所は、緊急避難場所を兼ねます。",  "lat" : "34.872535",  "lng" : "135.603926",  "homepage" : "http://www.takatsuki-osk.ed.jp/ankouji/",  },
    {  "label" : "北清水小学校",  "address" : "高槻市安岡寺町六丁目２－１",  "telephone" : "072-688-4316",  "fax" : "072-688-4330",  "areacapa" : "2571",  "peoplecapa" : "1558",  "Category1" : "避難所",  "Category2" : "家屋の倒壊等により自宅で生活できなくなった被災者が一定期間滞在するための場所　※避難所は、緊急避難場所を兼ねます。",  "lat" : "34.881759",  "lng" : "135.604570",  "homepage" : "http://www.takatsuki-osk.ed.jp/kitashimizu/",  },
    {  "label" : "芥川小学校",  "address" : "高槻市真上町一丁目２－３",  "telephone" : "072-682-1404",  "fax" : "072-682-1407",  "areacapa" : "2771",  "peoplecapa" : "1679",  "Category1" : "避難所",  "Category2" : "家屋の倒壊等により自宅で生活できなくなった被災者が一定期間滞在するための場所　※避難所は、緊急避難場所を兼ねます。",  "lat" : "34.854952",  "lng" : "135.613588",  "homepage" : "http://www.takatsuki-osk.ed.jp/akutagawa/",  },
    {  "label" : "真上小学校",  "address" : "高槻市西真上二丁目１７－１",  "telephone" : "072-683-3558",  "fax" : "072-683-3559",  "areacapa" : "2315",  "peoplecapa" : "1403",  "Category1" : "避難所",  "Category2" : "家屋の倒壊等により自宅で生活できなくなった被災者が一定期間滞在するための場所　※避難所は、緊急避難場所を兼ねます。",  "lat" : "34.857676",  "lng" : "135.600622",  "homepage" : "http://www.takatsuki-osk.ed.jp/makami/",  },
    {  "label" : "日吉台小学校",  "address" : "高槻市日吉台一番町２４－１８",  "telephone" : "072-689-1530",  "fax" : "072-689-1585",  "areacapa" : "3122",  "peoplecapa" : "1892",  "Category1" : "避難所",  "Category2" : "家屋の倒壊等により自宅で生活できなくなった被災者が一定期間滞在するための場所　※避難所は、緊急避難場所を兼ねます。",  "lat" : "34.869965",  "lng" : "135.613110",  "homepage" : "http://www.takatsuki-osk.ed.jp/hiyoshidai/",  },
    {  "label" : "北日吉台小学校",  "address" : "高槻市日吉台三番町４－２０",  "telephone" : "072-688-8641",  "fax" : "072-688-8642",  "areacapa" : "2822",  "peoplecapa" : "1710",  "Category1" : "避難所",  "Category2" : "家屋の倒壊等により自宅で生活できなくなった被災者が一定期間滞在するための場所　※避難所は、緊急避難場所を兼ねます。",  "lat" : "34.878027",  "lng" : "135.608604",  "homepage" : "http://www.takatsuki-osk.ed.jp/kitahiyoshi/",  },
    {  "label" : "磐手小学校",  "address" : "高槻市安満西の町２７－１",  "telephone" : "072-683-4960",  "fax" : "072-683-4999",  "areacapa" : "2733",  "peoplecapa" : "1656",  "Category1" : "避難所",  "Category2" : "家屋の倒壊等により自宅で生活できなくなった被災者が一定期間滞在するための場所　※避難所は、緊急避難場所を兼ねます。",  "lat" : "34.861127",  "lng" : "135.628860",  "homepage" : "http://www.takatsuki-osk.ed.jp/iwate/",  },
    {  "label" : "奥坂小学校",  "address" : "高槻市別所本町３５－５",  "telephone" : "072-681-2614",  "fax" : "072-683-9087",  "areacapa" : "2315",  "peoplecapa" : "1403",  "Category1" : "避難所",  "Category2" : "家屋の倒壊等により自宅で生活できなくなった被災者が一定期間滞在するための場所　※避難所は、緊急避難場所を兼ねます。",  "lat" : "34.863944",  "lng" : "135.624998",  "homepage" : "http://www.takatsuki-osk.ed.jp/okusaka/",  },
    {  "label" : "五領小学校",  "address" : "高槻市五領町１２－１",  "telephone" : "072-669-0181",  "fax" : "072-669-0183",  "areacapa" : "2338",  "peoplecapa" : "1416",  "Category1" : "避難所",  "Category2" : "家屋の倒壊等により自宅で生活できなくなった被災者が一定期間滞在するための場所　※避難所は、緊急避難場所を兼ねます。",  "lat" : "34.861760",  "lng" : "135.652678",  "homepage" : "http://www.takatsuki-osk.ed.jp/goryosyo/",  },
    {  "label" : "上牧小学校",  "address" : "高槻市上牧町四丁目２２－１",  "telephone" : "072-669-2255",  "fax" : "072-669-2256",  "areacapa" : "2379",  "peoplecapa" : "1441",  "Category1" : "避難所",  "Category2" : "家屋の倒壊等により自宅で生活できなくなった被災者が一定期間滞在するための場所　※避難所は、緊急避難場所を兼ねます。",  "lat" : "34.860458",  "lng" : "135.661047",  "homepage" : "http://www.takatsuki-osk.ed.jp/kanmaki/",  },
    {  "label" : "北大冠小学校",  "address" : "高槻市宮野町１０－５",  "telephone" : "072-671-5390",  "fax" : "072-671-5391",  "areacapa" : "2891",  "peoplecapa" : "1752",  "Category1" : "避難所",  "Category2" : "家屋の倒壊等により自宅で生活できなくなった被災者が一定期間滞在するための場所　※避難所は、緊急避難場所を兼ねます。",  "lat" : "34.851724",  "lng" : "135.636756",  "homepage" : "http://www.takatsuki-osk.ed.jp/kitakan/",  },
    {  "label" : "大冠小学校",  "address" : "高槻市天川町４２－２",  "telephone" : "072-671-6806",  "fax" : "072-671-6807",  "areacapa" : "2331",  "peoplecapa" : "1412",  "Category1" : "避難所",  "Category2" : "家屋の倒壊等により自宅で生活できなくなった被災者が一定期間滞在するための場所　※避難所は、緊急避難場所を兼ねます。",  "lat" : "34.841722",  "lng" : "135.634096",  "homepage" : "http://www.takatsuki-osk.ed.jp/okanmuri/",  },
    {  "label" : "松原小学校",  "address" : "高槻市沢良木町１８－１",  "telephone" : "072-676-1415",  "fax" : "072-676-1416",  "areacapa" : "2443",  "peoplecapa" : "1480",  "Category1" : "避難所",  "Category2" : "家屋の倒壊等により自宅で生活できなくなった被災者が一定期間滞在するための場所　※避難所は、緊急避難場所を兼ねます。",  "lat" : "34.845948",  "lng" : "135.631435",  "homepage" : "http://www.takatsuki-osk.ed.jp/matsubara/",  },
    {  "label" : "冠小学校",  "address" : "高槻市大冠町二丁目４０－２",  "telephone" : "072-672-1736",  "fax" : "072-672-1744",  "areacapa" : "1995",  "peoplecapa" : "1209",  "Category1" : "避難所",  "Category2" : "家屋の倒壊等により自宅で生活できなくなった被災者が一定期間滞在するための場所　※避難所は、緊急避難場所を兼ねます。",  "lat" : "34.834078",  "lng" : "135.636671",  "homepage" : "http://www.takatsuki-osk.ed.jp/kansyo/",  },
    {  "label" : "南大冠小学校",  "address" : "高槻市大塚町一丁目４－８",  "telephone" : "072-675-1010",  "fax" : "072-675-1012",  "areacapa" : "2919",  "peoplecapa" : "1769",  "Category1" : "避難所",  "Category2" : "家屋の倒壊等により自宅で生活できなくなった被災者が一定期間滞在するための場所　※避難所は、緊急避難場所を兼ねます。",  "lat" : "34.825976",  "lng" : "135.634267",  "homepage" : "http://www.takatsuki-osk.ed.jp/nankan/",  },
    {  "label" : "竹の内小学校",  "address" : "高槻市竹の内町６０－１",  "telephone" : "072-673-4495",  "fax" : "072-673-4497",  "areacapa" : "1803",  "peoplecapa" : "1092",  "Category1" : "避難所",  "Category2" : "家屋の倒壊等により自宅で生活できなくなった被災者が一定期間滞在するための場所　※避難所は、緊急避難場所を兼ねます。",  "lat" : "34.824672",  "lng" : "135.627701",  "homepage" : "http://www.takatsuki-osk.ed.jp/takenouti/",  },
    {  "label" : "桃園小学校",  "address" : "高槻市桃園町３－２７",  "telephone" : "072-671-1421",  "fax" : "072-671-1422",  "areacapa" : "2235",  "peoplecapa" : "1354",  "Category1" : "避難所",  "Category2" : "家屋の倒壊等により自宅で生活できなくなった被災者が一定期間滞在するための場所　※避難所は、緊急避難場所を兼ねます。",  "lat" : "34.845385",  "lng" : "135.615771",  "homepage" : "http://www.takatsuki-osk.ed.jp/touen/",  },
    {  "label" : "高槻小学校",  "address" : "高槻市本町３－６９",  "telephone" : "072-674-0403",  "fax" : "072-674-0401",  "areacapa" : "2512",  "peoplecapa" : "1522",  "Category1" : "避難所",  "Category2" : "家屋の倒壊等により自宅で生活できなくなった被災者が一定期間滞在するための場所　※避難所は、緊急避難場所を兼ねます。",  "lat" : "34.845032",  "lng" : "135.626199",  "homepage" : "http://www.takatsuki-osk.ed.jp/takasyo/",  },
    {  "label" : "桜台小学校",  "address" : "高槻市登町９－１",  "telephone" : "072-671-1312",  "fax" : "072-671-1341",  "areacapa" : "2678",  "peoplecapa" : "1623",  "Category1" : "避難所",  "Category2" : "家屋の倒壊等により自宅で生活できなくなった被災者が一定期間滞在するための場所　※避難所は、緊急避難場所を兼ねます。",  "lat" : "34.830133",  "lng" : "135.625169",  "homepage" : "http://www.takatsuki-osk.ed.jp/sakuradai/",  },
    {  "label" : "西大冠小学校",  "address" : "高槻市城南町三丁目１－１",  "telephone" : "072-675-5355",  "fax" : "072-675-5380",  "areacapa" : "2699",  "peoplecapa" : "1635",  "Category1" : "避難所",  "Category2" : "家屋の倒壊等により自宅で生活できなくなった被災者が一定期間滞在するための場所　※避難所は、緊急避難場所を兼ねます。",  "lat" : "34.838129",  "lng" : "135.623496",  "homepage" : "http://www.takatsuki-osk.ed.jp/nishikan/",  },
    {  "label" : "若松小学校",  "address" : "高槻市若松町２２－２",  "telephone" : "072-676-1408",  "fax" : "072-676-1409",  "areacapa" : "2436",  "peoplecapa" : "1476",  "Category1" : "避難所",  "Category2" : "家屋の倒壊等により自宅で生活できなくなった被災者が一定期間滞在するための場所　※避難所は、緊急避難場所を兼ねます。",  "lat" : "34.834818",  "lng" : "135.628603",  "homepage" : "http://www.takatsuki-osk.ed.jp/wakamatsu/",  },
    {  "label" : "芝生小学校",  "address" : "高槻市芝生町三丁目３０－１",  "telephone" : "072-677-2721",  "fax" : "072-677-2720",  "areacapa" : "2483",  "peoplecapa" : "1504",  "Category1" : "避難所",  "Category2" : "家屋の倒壊等により自宅で生活できなくなった被災者が一定期間滞在するための場所　※避難所は、緊急避難場所を兼ねます。",  "lat" : "34.825800",  "lng" : "135.608776",  "homepage" : "http://www.takatsuki-osk.ed.jp/shibo/",  },
    {  "label" : "如是小学校",  "address" : "高槻市如是町２－３",  "telephone" : "072-695-0401",  "fax" : "072-695-0402",  "areacapa" : "2331",  "peoplecapa" : "1412",  "Category1" : "避難所",  "Category2" : "家屋の倒壊等により自宅で生活できなくなった被災者が一定期間滞在するための場所　※避難所は、緊急避難場所を兼ねます。",  "lat" : "34.836544",  "lng" : "135.605385",  "homepage" : "http://www.takatsuki-osk.ed.jp/nyozesyo/",  },
    {  "label" : "津之江小学校",  "address" : "高槻市津之江北町７－１",  "telephone" : "072-673-9011",  "fax" : "072-673-9013",  "areacapa" : "2443",  "peoplecapa" : "1480",  "Category1" : "避難所",  "Category2" : "家屋の倒壊等により自宅で生活できなくなった被災者が一定期間滞在するための場所　※避難所は、緊急避難場所を兼ねます。",  "lat" : "34.843307",  "lng" : "135.605214",  "homepage" : "http://www.takatsuki-osk.ed.jp/tsunoe/",  },
    {  "label" : "丸橋小学校",  "address" : "高槻市芝生町三丁目１６－２",  "telephone" : "072-677-1419",  "fax" : "072-678-1448",  "areacapa" : "2443",  "peoplecapa" : "1480",  "Category1" : "避難所",  "Category2" : "家屋の倒壊等により自宅で生活できなくなった被災者が一定期間滞在するための場所　※避難所は、緊急避難場所を兼ねます。",  "lat" : "34.827244",  "lng" : "135.610321",  "homepage" : "http://www.takatsuki-osk.ed.jp/marubashi/",  },
    {  "label" : "五百住小学校",  "address" : "高槻市登美の里町２４－１",  "telephone" : "072-694-7277",  "fax" : "072-694-7278",  "areacapa" : "2123",  "peoplecapa" : "1286",  "Category1" : "避難所",  "Category2" : "家屋の倒壊等により自宅で生活できなくなった被災者が一定期間滞在するための場所　※避難所は、緊急避難場所を兼ねます。",  "lat" : "34.834325",  "lng" : "135.600750",  "homepage" : "http://www.takatsuki-osk.ed.jp/yosumi/",  },
    {  "label" : "富田小学校",  "address" : "高槻市昭和台町一丁目１－１",  "telephone" : "072-695-0967",  "fax" : "072-695-0958",  "areacapa" : "3007",  "peoplecapa" : "1822",  "Category1" : "避難所",  "Category2" : "家屋の倒壊等により自宅で生活できなくなった被災者が一定期間滞在するための場所　※避難所は、緊急避難場所を兼ねます。",  "lat" : "34.830274",  "lng" : "135.590751",  "homepage" : "http://www.takatsuki-osk.ed.jp/tonda/",  },
    {  "label" : "赤大路小学校",  "address" : "高槻市赤大路町１５－１",  "telephone" : "072-695-3157",  "fax" : "072-695-3118",  "areacapa" : "2379",  "peoplecapa" : "1441",  "Category1" : "避難所",  "Category2" : "家屋の倒壊等により自宅で生活できなくなった被災者が一定期間滞在するための場所　※避難所は、緊急避難場所を兼ねます。",  "lat" : "34.834959",  "lng" : "135.585043",  "homepage" : "http://www.takatsuki-osk.ed.jp/akaoji/",  },
    {  "label" : "寿栄小学校",  "address" : "高槻市栄町三丁目１１－２",  "telephone" : "072-694-8171",  "fax" : "072-694-8173",  "areacapa" : "2315",  "peoplecapa" : "1403",  "Category1" : "避難所",  "Category2" : "家屋の倒壊等により自宅で生活できなくなった被災者が一定期間滞在するための場所　※避難所は、緊急避難場所を兼ねます。",  "lat" : "34.826011",  "lng" : "135.601523",  "homepage" : "http://www.takatsuki-osk.ed.jp/jyuei/",  },
    {  "label" : "柳川小学校",  "address" : "高槻市西町２－１",  "telephone" : "072-694-7461",  "fax" : "072-694-7464",  "areacapa" : "2730",  "peoplecapa" : "1654",  "Category1" : "避難所",  "Category2" : "家屋の倒壊等により自宅で生活できなくなった被災者が一定期間滞在するための場所　※避難所は、緊急避難場所を兼ねます。",  "lat" : "34.825095",  "lng" : "135.595772",  "homepage" : "http://www.takatsuki-osk.ed.jp/yanasyo/",  },
    {  "label" : "玉川小学校",  "address" : "高槻市牧田町８－１",  "telephone" : "072-695-6758",  "fax" : "072-695-6703",  "areacapa" : "2552",  "peoplecapa" : "1546",  "Category1" : "避難所",  "Category2" : "家屋の倒壊等により自宅で生活できなくなった被災者が一定期間滞在するための場所　※避難所は、緊急避難場所を兼ねます。",  "lat" : "34.819800",  "lng" : "135.604203",  "homepage" : "http://www.takatsuki-osk.ed.jp/tamagawa/",  },
    {  "label" : "三箇牧小学校",  "address" : "高槻市三島江一丁目１３－６",  "telephone" : "072-677-5836",  "fax" : "072-677-5870",  "areacapa" : "2480",  "peoplecapa" : "1503",  "Category1" : "避難所",  "Category2" : "家屋の倒壊等により自宅で生活できなくなった被災者が一定期間滞在するための場所　※避難所は、緊急避難場所を兼ねます。",  "lat" : "34.804871",  "lng" : "135.613153",  "homepage" : "http://www.takatsuki-osk.ed.jp/sangamaki/",  },
    {  "label" : "柱本小学校",  "address" : "高槻市柱本新町１０－８",  "telephone" : "072-677-2717",  "fax" : "072-677-2702",  "areacapa" : "2635",  "peoplecapa" : "1596",  "Category1" : "避難所",  "Category2" : "家屋の倒壊等により自宅で生活できなくなった被災者が一定期間滞在するための場所　※避難所は、緊急避難場所を兼ねます。",  "lat" : "34.792819",  "lng" : "135.602167",  "homepage" : "http://www.takatsuki-osk.ed.jp/hashiramoto/",  },
    {  "label" : "阿武野中学校",  "address" : "高槻市氷室町五丁目７－１",  "telephone" : "072-693-0421",  "fax" : "072-693-0422",  "areacapa" : "2777",  "peoplecapa" : "1683",  "Category1" : "避難所",  "Category2" : "家屋の倒壊等により自宅で生活できなくなった被災者が一定期間滞在するための場所　※避難所は、緊急避難場所を兼ねます。",  "lat" : "34.858626",  "lng" : "135.584958",  "homepage" : "http://www.takatsuki-osk.ed.jp/abunojhs/",  },
    {  "label" : "阿武山中学校",  "address" : "高槻市奈佐原一丁目２－１",  "telephone" : "072-693-9211",  "fax" : "072-693-9212",  "areacapa" : "2266",  "peoplecapa" : "1373",  "Category1" : "避難所",  "Category2" : "家屋の倒壊等により自宅で生活できなくなった被災者が一定期間滞在するための場所　※避難所は、緊急避難場所を兼ねます。",  "lat" : "34.858415",  "lng" : "135.581911",  "homepage" : "http://www.takatsuki-osk.ed.jp/abuyamachu/",  },
    {  "label" : "第二中学校",  "address" : "高槻市郡家本町５２－１",  "telephone" : "072-681-1562",  "fax" : "072-681-1565",  "areacapa" : "3741",  "peoplecapa" : "2267",  "Category1" : "避難所",  "Category2" : "家屋の倒壊等により自宅で生活できなくなった被災者が一定期間滞在するための場所　※避難所は、緊急避難場所を兼ねます。",  "lat" : "34.857147",  "lng" : "135.596631",  "homepage" : "http://www.takatsuki-osk.ed.jp/nichu/",  },
    {  "label" : "川西中学校",  "address" : "高槻市川西町二丁目３３－１",  "telephone" : "072-681-7913",  "fax" : "072-681-7914",  "areacapa" : "2575",  "peoplecapa" : "1560",  "Category1" : "避難所",  "Category2" : "家屋の倒壊等により自宅で生活できなくなった被災者が一定期間滞在するための場所　※避難所は、緊急避難場所を兼ねます。",  "lat" : "34.845913",  "lng" : "135.605257",  "homepage" : "http://www.takatsuki-osk.ed.jp/jhs-kawanishi/",  },
    {  "label" : "第九中学校",  "address" : "高槻市松が丘一丁目１７－１",  "telephone" : "072-688-4317",  "fax" : "072-688-4342",  "areacapa" : "3028",  "peoplecapa" : "1835",  "Category1" : "避難所",  "Category2" : "家屋の倒壊等により自宅で生活できなくなった被災者が一定期間滞在するための場所　※避難所は、緊急避難場所を兼ねます。",  "lat" : "34.873258",  "lng" : "135.599546",  "homepage" : "http://www.takatsuki-osk.ed.jp/kyuchu/",  },
    {  "label" : "芝谷中学校",  "address" : "高槻市芝谷町３－１",  "telephone" : "072-688-2912",  "fax" : "072-688-2913",  "areacapa" : "3084",  "peoplecapa" : "1869",  "Category1" : "避難所",  "Category2" : "家屋の倒壊等により自宅で生活できなくなった被災者が一定期間滞在するための場所　※避難所は、緊急避難場所を兼ねます。",  "lat" : "34.869789",  "lng" : "135.609677",  "homepage" : "http://www.takatsuki-osk.ed.jp/shibatanijh/",  },
    {  "label" : "第八中学校",  "address" : "高槻市紅茸町５－１",  "telephone" : "072-681-1520",  "fax" : "072-681-1542",  "areacapa" : "3070",  "peoplecapa" : "1860",  "Category1" : "避難所",  "Category2" : "家屋の倒壊等により自宅で生活できなくなった被災者が一定期間滞在するための場所　※避難所は、緊急避難場所を兼ねます。",  "lat" : "34.864965",  "lng" : "135.627229",  "homepage" : "http://www.takatsuki-osk.ed.jp/08/",  },
    {  "label" : "五領中学校",  "address" : "高槻市道鵜町三丁目２０－１",  "telephone" : "072-669-3461",  "fax" : "072-669-3463",  "areacapa" : "2137",  "peoplecapa" : "1295",  "Category1" : "避難所",  "Category2" : "家屋の倒壊等により自宅で生活できなくなった被災者が一定期間滞在するための場所　※避難所は、緊急避難場所を兼ねます。",  "lat" : "34.857676",  "lng" : "135.655596",  "homepage" : "http://www.takatsuki-osk.ed.jp/goryochu/",  },
    {  "label" : "第六中学校",  "address" : "高槻市永楽町１０－３",  "telephone" : "072-674-0495",  "fax" : "072-674-0496",  "areacapa" : "2769",  "peoplecapa" : "1678",  "Category1" : "避難所",  "Category2" : "家屋の倒壊等により自宅で生活できなくなった被災者が一定期間滞在するための場所　※避難所は、緊急避難場所を兼ねます。",  "lat" : "34.846864",  "lng" : "135.637915",  "homepage" : "http://www.takatsuki-osk.ed.jp/6chu/",  },
    {  "label" : "冠中学校",  "address" : "高槻市大冠町二丁目２４－１",  "telephone" : "072-676-2567",  "fax" : "072-676-2569",  "areacapa" : "2444",  "peoplecapa" : "1481",  "Category1" : "避難所",  "Category2" : "家屋の倒壊等により自宅で生活できなくなった被災者が一定期間滞在するための場所　※避難所は、緊急避難場所を兼ねます。",  "lat" : "34.832141",  "lng" : "135.637915",  "homepage" : "http://www.takatsuki-osk.ed.jp/kamchu/",  },
    {  "label" : "第十中学校",  "address" : "高槻市竹の内町６１－１",  "telephone" : "072-671-9997",  "fax" : "072-671-9980",  "areacapa" : "3097",  "peoplecapa" : "1876",  "Category1" : "避難所",  "Category2" : "家屋の倒壊等により自宅で生活できなくなった被災者が一定期間滞在するための場所　※避難所は、緊急避難場所を兼ねます。",  "lat" : "34.822136",  "lng" : "135.627615",  "homepage" : "http://www.takatsuki-osk.ed.jp/jhs-10/",  },
    {  "label" : "第一中学校",  "address" : "高槻市城内町１－３５",  "telephone" : "072-675-1426",  "fax" : "072-675-1425",  "areacapa" : "2960",  "peoplecapa" : "1793",  "Category1" : "避難所",  "Category2" : "家屋の倒壊等により自宅で生活できなくなった被災者が一定期間滞在するための場所　※避難所は、緊急避難場所を兼ねます。",  "lat" : "34.844076",  "lng" : "135.622986",  "homepage" : "http://www.takatsuki-osk.ed.jp/icchu/",  },
    {  "label" : "城南中学校",  "address" : "高槻市城南町二丁目３０－１",  "telephone" : "072-673-4491",  "fax" : "072-673-4492",  "areacapa" : "2753",  "peoplecapa" : "1668",  "Category1" : "避難所",  "Category2" : "家屋の倒壊等により自宅で生活できなくなった被災者が一定期間滞在するための場所　※避難所は、緊急避難場所を兼ねます。",  "lat" : "34.838939",  "lng" : "135.626028",  "homepage" : "http://www.takatsuki-osk.ed.jp/jounanchu/",  },
    {  "label" : "第三中学校",  "address" : "高槻市芝生町二丁目４９－５",  "telephone" : "072-694-0386",  "fax" : "072-694-0387",  "areacapa" : "2908",  "peoplecapa" : "1762",  "Category1" : "避難所",  "Category2" : "家屋の倒壊等により自宅で生活できなくなった被災者が一定期間滞在するための場所　※避難所は、緊急避難場所を兼ねます。",  "lat" : "34.832141",  "lng" : "135.607874",  "homepage" : "http://www.takatsuki-osk.ed.jp/sanchu/",  },
    {  "label" : "如是中学校",  "address" : "高槻市如是町７－１",  "telephone" : "072-694-2862",  "fax" : "072-694-2867",  "areacapa" : "2432",  "peoplecapa" : "1473",  "Category1" : "避難所",  "Category2" : "家屋の倒壊等により自宅で生活できなくなった被災者が一定期間滞在するための場所　※避難所は、緊急避難場所を兼ねます。",  "lat" : "34.835029",  "lng" : "135.604184",  "homepage" : "http://www.takatsuki-osk.ed.jp/nyozechu/",  },
    {  "label" : "第四中学校",  "address" : "高槻市大畑町４－４",  "telephone" : "072-695-0404",  "fax" : "072-695-0405",  "areacapa" : "3696",  "peoplecapa" : "2240",  "Category1" : "避難所",  "Category2" : "家屋の倒壊等により自宅で生活できなくなった被災者が一定期間滞在するための場所　※避難所は、緊急避難場所を兼ねます。",  "lat" : "34.839045",  "lng" : "135.591996",  "homepage" : "http://www.takatsuki-osk.ed.jp/jhs-04/",  },
    {  "label" : "柳川中学校",  "address" : "高槻市川添一丁目１－５",  "telephone" : "072-695-3156",  "fax" : "072-695-3199",  "areacapa" : "2969",  "peoplecapa" : "1799",  "Category1" : "避難所",  "Category2" : "家屋の倒壊等により自宅で生活できなくなった被災者が一定期間滞在するための場所　※避難所は、緊急避難場所を兼ねます。",  "lat" : "34.823263",  "lng" : "135.599377",  "homepage" : "http://www.takatsuki-osk.ed.jp/yanachu/",  },
    {  "label" : "第七中学校",  "address" : "高槻市西面北一丁目４５－１",  "telephone" : "072-677-2444",  "fax" : "072-677-2421",  "areacapa" : "3133",  "peoplecapa" : "1898",  "Category1" : "避難所",  "Category2" : "家屋の倒壊等により自宅で生活できなくなった被災者が一定期間滞在するための場所　※避難所は、緊急避難場所を兼ねます。",  "lat" : "34.806993",  "lng" : "135.603737",  "homepage" : "http://www.takatsuki-osk.ed.jp/7chu/",  },
    {  "label" : "今城塚公民館",  "address" : "高槻市郡家新町４８－３",  "telephone" : "072-683-3331",  "fax" : "072-683-6159",  "areacapa" : "577",  "peoplecapa" : "349",  "Category1" : "避難所",  "Category2" : "家屋の倒壊等により自宅で生活できなくなった被災者が一定期間滞在するための場所　※避難所は、緊急避難場所を兼ねます。",  "lat" : "34.852272",  "lng" : "135.594871",  "homepage" : "http://www.city.takatsuki.osaka.jp/kakuka/kyoikukanribu/kominkan/gyomuannai/imasiro/imasiro.html",  },
    {  "label" : "北清水公民館",  "address" : "高槻市清水台一丁目７－１",  "telephone" : "072-687-3190",  "fax" : "072-687-3190",  "areacapa" : "257",  "peoplecapa" : "155",  "Category1" : "避難所",  "Category2" : "家屋の倒壊等により自宅で生活できなくなった被災者が一定期間滞在するための場所　※避難所は、緊急避難場所を兼ねます。",  "lat" : "34.878505",  "lng" : "135.598208",  "homepage" : "http://www.city.takatsuki.osaka.jp/kakuka/kyoikukanribu/kominkan/gyomuannai/kitasimizu/kitasimizu.html",  },
    {  "label" : "芥川公民館",  "address" : "高槻市芥川町四丁目２０－１２",  "telephone" : "072-683-1423",  "fax" : "072-683-1423",  "areacapa" : "210",  "peoplecapa" : "127",  "Category1" : "避難所",  "Category2" : "家屋の倒壊等により自宅で生活できなくなった被災者が一定期間滞在するための場所　※避難所は、緊急避難場所を兼ねます。",  "lat" : "34.852012",  "lng" : "135.608384",  "homepage" : "http://www.city.takatsuki.osaka.jp/kakuka/kyoikukanribu/kominkan/gyomuannai/akutagawa/akutagawa.html",  },
    {  "label" : "真上公民館",  "address" : "高槻市真上町二丁目１６－６",  "telephone" : "072-683-2509",  "fax" : "072-683-2509",  "areacapa" : "222",  "peoplecapa" : "134",  "Category1" : "避難所",  "Category2" : "家屋の倒壊等により自宅で生活できなくなった被災者が一定期間滞在するための場所　※避難所は、緊急避難場所を兼ねます。",  "lat" : "34.857915",  "lng" : "135.608711",  "homepage" : "http://www.city.takatsuki.osaka.jp/kakuka/kyoikukanribu/kominkan/gyomuannai/makami/makami.html",  },
    {  "label" : "日吉台公民館",  "address" : "高槻市寺谷町５０－１",  "telephone" : "072-688-6636",  "fax" : "072-688-6636",  "areacapa" : "391",  "peoplecapa" : "236",  "Category1" : "避難所",  "Category2" : "家屋の倒壊等により自宅で生活できなくなった被災者が一定期間滞在するための場所　※避難所は、緊急避難場所を兼ねます。",  "lat" : "34.878021",  "lng" : "135.608593",  "homepage" : "http://www.city.takatsuki.osaka.jp/kakuka/kyoikukanribu/kominkan/gyomuannai/hiyosidai/hiyosidai.html",  },
    {  "label" : "磐手公民館",  "address" : "高槻市安満北の町１８－１",  "telephone" : "072-685-2110",  "fax" : "072-685-7727",  "areacapa" : "828",  "peoplecapa" : "501",  "Category1" : "避難所",  "Category2" : "家屋の倒壊等により自宅で生活できなくなった被災者が一定期間滞在するための場所　※避難所は、緊急避難場所を兼ねます。",  "lat" : "34.862995",  "lng" : "135.629021",  "homepage" : "http://www.city.takatsuki.osaka.jp/kakuka/kyoikukanribu/kominkan/gyomuannai/iwate/iwate.html",  },
    {  "label" : "五領公民館",  "address" : "高槻市五領町１１－６",  "telephone" : "072-669-6169",  "fax" : "072-669-6165",  "areacapa" : "439",  "peoplecapa" : "266",  "Category1" : "避難所",  "Category2" : "家屋の倒壊等により自宅で生活できなくなった被災者が一定期間滞在するための場所　※避難所は、緊急避難場所を兼ねます。",  "lat" : "34.862022",  "lng" : "135.653536",  "homepage" : "http://www.city.takatsuki.osaka.jp/kakuka/kyoikukanribu/kominkan/gyomuannai/goryo/goryo.html",  },
    {  "label" : "城内公民館",  "address" : "高槻市城内町１－１",  "telephone" : "072-671-4644",  "fax" : "072-671-4552",  "areacapa" : "390",  "peoplecapa" : "236",  "Category1" : "避難所",  "Category2" : "家屋の倒壊等により自宅で生活できなくなった被災者が一定期間滞在するための場所　※避難所は、緊急避難場所を兼ねます。",  "lat" : "34.844616",  "lng" : "135.622439",  "homepage" : "http://www.city.takatsuki.osaka.jp/kakuka/kyoikukanribu/kominkan/gyomuannai/jounai/jounai.html",  },
    {  "label" : "如是公民館",  "address" : "高槻市如是町２－５",  "telephone" : "072-693-1866",  "fax" : "072-693-1866",  "areacapa" : "249",  "peoplecapa" : "150",  "Category1" : "避難所",  "Category2" : "家屋の倒壊等により自宅で生活できなくなった被災者が一定期間滞在するための場所　※避難所は、緊急避難場所を兼ねます。",  "lat" : "34.836163",  "lng" : "135.604929",  "homepage" : "http://www.city.takatsuki.osaka.jp/kakuka/kyoikukanribu/kominkan/gyomuannai/nyoze/nyoze.html",  },
    {  "label" : "南大冠公民館",  "address" : "高槻市大塚町一丁目２０－１",  "telephone" : "072-673-1477",  "fax" : "072-673-1477",  "areacapa" : "270",  "peoplecapa" : "163",  "Category1" : "避難所",  "Category2" : "家屋の倒壊等により自宅で生活できなくなった被災者が一定期間滞在するための場所　※避難所は、緊急避難場所を兼ねます。",  "lat" : "34.822385",  "lng" : "135.632905",  "homepage" : "http://www.city.takatsuki.osaka.jp/kakuka/kyoikukanribu/kominkan/gyomuannai/minamiokanmuri/nankan.html",  },
    {  "label" : "富田公民館",  "address" : "高槻市富田町五丁目１７－１",  "telephone" : "072-693-1671",  "fax" : "072-692-6621",  "areacapa" : "579",  "peoplecapa" : "350",  "Category1" : "避難所",  "Category2" : "家屋の倒壊等により自宅で生活できなくなった被災者が一定期間滞在するための場所　※避難所は、緊急避難場所を兼ねます。",  "lat" : "34.830668",  "lng" : "135.595086",  "homepage" : "http://www.city.takatsuki.osaka.jp/kakuka/kyoikukanribu/kominkan/gyomuannai/tonda/tonda.html",  },
    {  "label" : "三箇牧公民館",  "address" : "高槻市三島江一丁目１１－８",  "telephone" : "072-677-0965",  "fax" : "072-677-0967",  "areacapa" : "386",  "peoplecapa" : "233",  "Category1" : "避難所",  "Category2" : "家屋の倒壊等により自宅で生活できなくなった被災者が一定期間滞在するための場所　※避難所は、緊急避難場所を兼ねます。",  "lat" : "34.803618",  "lng" : "135.611528",  "homepage" : "http://www.city.takatsuki.osaka.jp/kakuka/kyoikukanribu/kominkan/gyomuannai/sangamaki/sangamaki.html",  },
    {  "label" : "阿武山公民館",  "address" : "高槻市奈佐原二丁目１１－１２",  "telephone" : "072-693-0188",  "fax" : "072-693-0199",  "areacapa" : "283",  "peoplecapa" : "171",  "Category1" : "避難所",  "Category2" : "家屋の倒壊等により自宅で生活できなくなった被災者が一定期間滞在するための場所　※避難所は、緊急避難場所を兼ねます。",  "lat" : "34.860297",  "lng" : "135.58013",  "homepage" : "http://www.city.takatsuki.osaka.jp/kakuka/kyoikukanribu/kominkan/gyomuannai/abuyama/abuyama.html",  },
    {  "label" : "阿武野コミュニティセンター",  "address" : "高槻市南平台五丁目２１－２",  "telephone" : "072-696-0921",  "fax" : "072-696-0922",  "areacapa" : "310",  "peoplecapa" : "187",  "Category1" : "避難所",  "Category2" : "家屋の倒壊等により自宅で生活できなくなった被災者が一定期間滞在するための場所　※避難所は、緊急避難場所を兼ねます。",  "lat" : "34.862088",  "lng" : "135.588536",  "homepage" : "http://www.city.takatsuki.osaka.jp/kurashi/shiminkatsudo/koekikatsudo/komyunithisennta/1327385477029.html",  },
    {  "label" : "西阿武野コミュニティセンター",  "address" : "高槻市阿武野１－１０－２",  "telephone" : "072-692-0800",  "fax" : "072-692-0800",  "areacapa" : "240",  "peoplecapa" : "145",  "Category1" : "避難所",  "Category2" : "家屋の倒壊等により自宅で生活できなくなった被災者が一定期間滞在するための場所　※避難所は、緊急避難場所を兼ねます。",  "lat" : "34.510819",  "lng" : "135.34415",  "homepage" : "http://www.city.takatsuki.osaka.jp/kakuka/shimin/cominiti/shisetsuannnai/communitycenter/1425524309720.html",  },
    {  "label" : "川西コミュニティセンター",  "address" : "高槻市清福寺町６－５",  "telephone" : "072-683-9048",  "fax" : "072-683-9048",  "areacapa" : "288",  "peoplecapa" : "174",  "Category1" : "避難所",  "Category2" : "家屋の倒壊等により自宅で生活できなくなった被災者が一定期間滞在するための場所　※避難所は、緊急避難場所を兼ねます。",  "lat" : "34.851739",  "lng" : "135.604334",  "homepage" : "http://www.city.takatsuki.osaka.jp/kurashi/shiminkatsudo/koekikatsudo/komyunithisennta/1327392444450.html",  },
    {  "label" : "清水コミュニティセンター",  "address" : "高槻市宮之川原五丁目４－３",  "telephone" : "072-687-4660",  "fax" : "072-687-4670",  "areacapa" : "248",  "peoplecapa" : "150",  "Category1" : "避難所",  "Category2" : "家屋の倒壊等により自宅で生活できなくなった被災者が一定期間滞在するための場所　※避難所は、緊急避難場所を兼ねます。",  "lat" : "34.86575",  "lng" : "135.598363",  "homepage" : "http://www.city.takatsuki.osaka.jp/kurashi/shiminkatsudo/koekikatsudo/komyunithisennta/1327389360687.html",  },
    {  "label" : "奥坂コミュニティセンター",  "address" : "高槻市別所本町３５－３",  "telephone" : "072-684-1375",  "fax" : "072-684-1384",  "areacapa" : "260",  "peoplecapa" : "157",  "Category1" : "避難所",  "Category2" : "家屋の倒壊等により自宅で生活できなくなった被災者が一定期間滞在するための場所　※避難所は、緊急避難場所を兼ねます。",  "lat" : "34.863233",  "lng" : "135.625078",  "homepage" : "http://www.city.takatsuki.osaka.jp/kurashi/shiminkatsudo/koekikatsudo/komyunithisennta/1327452703726.html",  },
    {  "label" : "大冠北第１コミュニティセンター",  "address" : "高槻市永楽町１－１５",  "telephone" : "072-673-2046",  "fax" : "072-673-2051",  "areacapa" : "175",  "peoplecapa" : "106",  "Category1" : "避難所",  "Category2" : "家屋の倒壊等により自宅で生活できなくなった被災者が一定期間滞在するための場所　※避難所は、緊急避難場所を兼ねます。",  "lat" : "34.845638",  "lng" : "135.632596",  "homepage" : "http://www.city.takatsuki.osaka.jp/kurashi/shiminkatsudo/koekikatsudo/komyunithisennta/1327394733215.html",  },
    {  "label" : "大冠北第２コミュニティセンター",  "address" : "高槻市宮野町１０－１６",  "telephone" : "072-674-4955",  "fax" : "072-674-4955",  "areacapa" : "224",  "peoplecapa" : "135",  "Category1" : "避難所",  "Category2" : "家屋の倒壊等により自宅で生活できなくなった被災者が一定期間滞在するための場所　※避難所は、緊急避難場所を兼ねます。",  "lat" : "34.850599",  "lng" : "135.637255",  "homepage" : "http://www.city.takatsuki.osaka.jp/kurashi/shiminkatsudo/koekikatsudo/komyunithisennta/1327450473146.html",  },
    {  "label" : "冠コミュニティセンター",  "address" : "高槻市大冠町二丁目４０－１０",  "telephone" : "072-674-8221",  "fax" : "072-674-8221",  "areacapa" : "196",  "peoplecapa" : "118",  "Category1" : "避難所",  "Category2" : "家屋の倒壊等により自宅で生活できなくなった被災者が一定期間滞在するための場所　※避難所は、緊急避難場所を兼ねます。",  "lat" : "34.833831",  "lng" : "135.636714",  "homepage" : "http://www.city.takatsuki.osaka.jp/kurashi/shiminkatsudo/koekikatsudo/komyunithisennta/1327391558878.html",  },
    {  "label" : "竹の内コミュニティセンター",  "address" : "高槻市竹の内町６０－６",  "telephone" : "072-661-1263",  "fax" : "072-661-1265",  "areacapa" : "184",  "peoplecapa" : "111",  "Category1" : "避難所",  "Category2" : "家屋の倒壊等により自宅で生活できなくなった被災者が一定期間滞在するための場所　※避難所は、緊急避難場所を兼ねます。",  "lat" : "34.825119",  "lng" : "135.62776",  "homepage" : "http://www.city.takatsuki.osaka.jp/kurashi/shiminkatsudo/koekikatsudo/komyunithisennta/1327456384228.html",  },
    {  "label" : "庄所コミュニティセンター",  "address" : "高槻市南庄所町３－３",  "telephone" : "072-674-8400",  "fax" : "072-674-8400",  "areacapa" : "233",  "peoplecapa" : "141",  "Category1" : "避難所",  "Category2" : "家屋の倒壊等により自宅で生活できなくなった被災者が一定期間滞在するための場所　※避難所は、緊急避難場所を兼ねます。",  "lat" : "34.837107",  "lng" : "135.614955",  "homepage" : "http://www.city.takatsuki.osaka.jp/kurashi/shiminkatsudo/koekikatsudo/komyunithisennta/1327383736082.html",  },
    {  "label" : "西大冠コミュニティセンター",  "address" : "高槻市城南町三丁目１－３",  "telephone" : "072-672-4130",  "fax" : "072-672-4131",  "areacapa" : "155",  "peoplecapa" : "93",  "Category1" : "避難所",  "Category2" : "家屋の倒壊等により自宅で生活できなくなった被災者が一定期間滞在するための場所　※避難所は、緊急避難場所を兼ねます。",  "lat" : "34.837017",  "lng" : "135.62386",  "homepage" : "http://www.city.takatsuki.osaka.jp/kurashi/shiminkatsudo/koekikatsudo/komyunithisennta/1327387883089.html",  },
    {  "label" : "堤コミュニティセンター",  "address" : "高槻市堤町３－２",  "telephone" : "072-674-8210",  "fax" : "072-674-8210",  "areacapa" : "229",  "peoplecapa" : "138",  "Category1" : "避難所",  "Category2" : "家屋の倒壊等により自宅で生活できなくなった被災者が一定期間滞在するための場所　※避難所は、緊急避難場所を兼ねます。",  "lat" : "34.827891",  "lng" : "135.610009",  "homepage" : "http://www.city.takatsuki.osaka.jp/kurashi/shiminkatsudo/koekikatsudo/komyunithisennta/1327454400750.html",  },
    {  "label" : "女瀬川南コミュニティセンター",  "address" : "高槻市芝生町三丁目１６－１",  "telephone" : "072-678-6748",  "fax" : "072-678-6751",  "areacapa" : "228",  "peoplecapa" : "138",  "Category1" : "避難所",  "Category2" : "家屋の倒壊等により自宅で生活できなくなった被災者が一定期間滞在するための場所　※避難所は、緊急避難場所を兼ねます。",  "lat" : "34.827255",  "lng" : "135.618421",  "homepage" : "http://www.city.takatsuki.osaka.jp/kurashi/shiminkatsudo/koekikatsudo/komyunithisennta/1327457755278.html",  },
    {  "label" : "赤大路コミュニティセンター",  "address" : "高槻市赤大路町１５－６",  "telephone" : "072-695-5563",  "fax" : "072-695-5613",  "areacapa" : "270",  "peoplecapa" : "163",  "Category1" : "避難所",  "Category2" : "家屋の倒壊等により自宅で生活できなくなった被災者が一定期間滞在するための場所　※避難所は、緊急避難場所を兼ねます。",  "lat" : "34.835599",  "lng" : "135.586122",  "homepage" : "http://www.city.takatsuki.osaka.jp/kurashi/shiminkatsudo/koekikatsudo/komyunithisennta/1327393466296.html",  },
    {  "label" : "玉川牧田コミュニティセンター",  "address" : "高槻市牧田町２６－３",  "telephone" : "072-696-8877",  "fax" : "072-696-8877",  "areacapa" : "232",  "peoplecapa" : "140",  "Category1" : "避難所",  "Category2" : "家屋の倒壊等により自宅で生活できなくなった被災者が一定期間滞在するための場所　※避難所は、緊急避難場所を兼ねます。",  "lat" : "34.820095",  "lng" : "135.599302",  "homepage" : "http://www.city.takatsuki.osaka.jp/kurashi/shiminkatsudo/koekikatsudo/komyunithisennta/1327386359426.html",  },
    {  "label" : "寿栄コミュニティセンター",  "address" : "高槻市栄町三丁目１１－３",  "telephone" : "072-696-6025",  "fax" : "072-696-6137",  "areacapa" : "253",  "peoplecapa" : "153",  "Category1" : "避難所",  "Category2" : "家屋の倒壊等により自宅で生活できなくなった被災者が一定期間滞在するための場所　※避難所は、緊急避難場所を兼ねます。",  "lat" : "34.826520",  "lng" : "135.600431",  "homepage" : "http://www.city.takatsuki.osaka.jp/kurashi/shiminkatsudo/koekikatsudo/komyunithisennta/1327455298503.html",  },
    {  "label" : "柳川コミュニティセンター",  "address" : "高槻市西町２－５",  "telephone" : "072-695-5793",  "fax" : "072-695-5793",  "areacapa" : "244",  "peoplecapa" : "147",  "Category1" : "避難所",  "Category2" : "家屋の倒壊等により自宅で生活できなくなった被災者が一定期間滞在するための場所　※避難所は、緊急避難場所を兼ねます。",  "lat" : "34.824637",  "lng" : "135.595858",  "homepage" : "http://www.city.takatsuki.osaka.jp/kurashi/shiminkatsudo/koekikatsudo/komyunithisennta/1327390602715.html",  },
    {  "label" : "桃園コミュニティセンター",  "address" : "高槻市城西町１０－１２",  "telephone" : "072-672-5477",  "fax" : "072-672-5477",  "areacapa" : "213",  "peoplecapa" : "129",  "Category1" : "避難所",  "Category2" : "家屋の倒壊等により自宅で生活できなくなった被災者が一定期間滞在するための場所　※避難所は、緊急避難場所を兼ねます。",  "lat" : "34.845479",  "lng" : "135.609258",  "homepage" : "http://www.city.takatsuki.osaka.jp/kurashi/shiminkatsudo/koekikatsudo/komyunithisennta/1395102652888.html",  },
    {  "label" : "清水池コミュニティセンター",  "address" : "高槻市川西町三丁目７－７",  "telephone" : "072-661-4111",  "fax" : "072-661-4111",  "areacapa" : "140",  "peoplecapa" : "84",  "Category1" : "避難所",  "Category2" : "家屋の倒壊等により自宅で生活できなくなった被災者が一定期間滞在するための場所　※避難所は、緊急避難場所を兼ねます。",  "lat" : "34.841486",  "lng" : "135.614365",  "homepage" : "http://www.city.takatsuki.osaka.jp/kurashi/shiminkatsudo/koekikatsudo/komyunithisennta/1327381301398.html",  },
    {  "label" : "春日ふれあい文化センター",  "address" : "高槻市春日町２２－１",  "telephone" : "072-671-9604",  "fax" : "072-671-9605",  "areacapa" : "716",  "peoplecapa" : "433",  "Category1" : "避難所",  "Category2" : "家屋の倒壊等により自宅で生活できなくなった被災者が一定期間滞在するための場所　※避難所は、緊急避難場所を兼ねます。",  "lat" : "34.836810",  "lng" : "135.627699",  "homepage" : "http://www.city.takatsuki.osaka.jp/kurashi/bunka_sports/bunka_koryushisetsu/1327892459993.html",  },
    {  "label" : "私立金光大阪中学校・高等学校",  "address" : "高槻市東上牧一丁目３－１",  "telephone" : "072-669-5211",  "fax" : "072-669-5214",  "areacapa" : "1869",  "peoplecapa" : "1132",  "Category1" : "緊急避難場所",  "Category2" : "災害の危険から緊急的に逃れるための場所　※洪水（河川ごと）、土砂災害、地震の災害種類ごとに指定しています。",  "lat" : "34.870002",  "lng" : "135.663246",  "homepage" : "http://www.city.takatsuki.osaka.jp/kurashi/bosaibohan/hinambasho/1321593068073.html",  },
    {  "label" : "関西大学高槻ミューズキャンパス",  "address" : "高槻市白梅町７－１",  "telephone" : "072-684-4000",  "fax" : "072-684-4007",  "areacapa" : "10811",  "peoplecapa" : "6552",  "Category1" : "緊急避難場所",  "Category2" : "災害の危険から緊急的に逃れるための場所　※洪水（河川ごと）、土砂災害、地震の災害種類ごとに指定しています。",  "lat" : "34.855191",  "lng" : "135.623084",  "homepage" : "http://www.city.takatsuki.osaka.jp/kakuka/toshi/toshiduk/gyomuannai/jr_hokutou/kentoujikou/kandai_campas.html",  },
    {  "label" : "郡家老人福祉センター",  "address" : "高槻市郡家新町４８－６",  "telephone" : "072-685-0479",  "fax" : "072-685-0479",  "areacapa" : "286",  "peoplecapa" : "173",  "Category1" : "緊急避難場所",  "Category2" : "災害の危険から緊急的に逃れるための場所　※洪水（河川ごと）、土砂災害、地震の災害種類ごとに指定しています。",  "lat" : "34.851849",  "lng" : "135.594871",  "homepage" : "http://www.city.takatsuki.osaka.jp/kakuka/kenkouf/chouju/gyomuannai/sisetunoriyou/kaigokorei/roujinhukusisenta/furusato.html",  },
    {  "label" : "山手老人福祉センター",  "address" : "高槻市山手町二丁目２－２",  "telephone" : "072-685-4656",  "fax" : "072-685-4657",  "areacapa" : "410",  "peoplecapa" : "248",  "Category1" : "緊急避難場所",  "Category2" : "災害の危険から緊急的に逃れるための場所　※洪水（河川ごと）、土砂災害、地震の災害種類ごとに指定しています。",  "lat" : "34.862168",  "lng" : "135.638929",  "homepage" : "http://www.city.takatsuki.osaka.jp/kakuka/kenkouf/chouju/gyomuannai/sisetunoriyou/kaigokorei/roujinhukusisenta/hanamizuki.html",  },
    {  "label" : "富田老人福祉センター",  "address" : "高槻市富田町二丁目４－９",  "telephone" : "072-694-7212",  "fax" : "072-694-7237",  "areacapa" : "445",  "peoplecapa" : "269",  "Category1" : "緊急避難場所",  "Category2" : "災害の危険から緊急的に逃れるための場所　※洪水（河川ごと）、土砂災害、地震の災害種類ごとに指定しています。",  "lat" : "34.832614",  "lng" : "135.591306",  "homepage" : "http://www.city.takatsuki.osaka.jp/kakuka/kenkouf/chouju/gyomuannai/sisetunoriyou/kaigokorei/roujinhukusisenta/hikari.html",  },
    {  "label" : "堤運動広場",  "address" : "高槻市堤町３－１",  "telephone" : "072-673-5311",  "fax" : "072-673-5311",  "areacapa" : "749",  "peoplecapa" : "453",  "Category1" : "緊急避難場所",  "Category2" : "災害の危険から緊急的に逃れるための場所　※洪水（河川ごと）、土砂災害、地震の災害種類ごとに指定しています。",  "lat" : "34.827187",  "lng" : "135.617203",  "homepage" : "http://www.city.takatsuki.osaka.jp/kurashi/bunka_sports/sport_page/shisetu/guraundo/1418956227482.html",  },
    {  "label" : "土室幼稚園",  "address" : "高槻市上土室六丁目１０－２",  "telephone" : "072-694‐7200",  "fax" : "072-694‐7200",  "areacapa" : "298",  "peoplecapa" : "180",  "Category1" : "緊急避難場所",  "Category2" : "災害の危険から緊急的に逃れるための場所　※洪水（河川ごと）、土砂災害、地震の災害種類ごとに指定しています。",  "lat" : "34.848719",  "lng" : "135.577705",  "homepage" : "http://www.takatsuki-osk.ed.jp/hamuroyo/",  },
    {  "label" : "郡家幼稚園",  "address" : "高槻市郡家新町６８－３",  "telephone" : "072-683-1888",  "fax" : "072-683-1888",  "areacapa" : "359",  "peoplecapa" : "217",  "Category1" : "緊急避難場所",  "Category2" : "災害の危険から緊急的に逃れるための場所　※洪水（河川ごと）、土砂災害、地震の災害種類ごとに指定しています。",  "lat" : "34.850471",  "lng" : "135.596534",  "homepage" : "http://www.takatsuki-osk.ed.jp/gungeyo/",  },
    {  "label" : "阿武野幼稚園",  "address" : "高槻市氷室町四丁目１６－１",  "telephone" : "072-696-0074",  "fax" : "072-696-0074",  "areacapa" : "360",  "peoplecapa" : "218",  "Category1" : "緊急避難場所",  "Category2" : "災害の危険から緊急的に逃れるための場所　※洪水（河川ごと）、土砂災害、地震の災害種類ごとに指定しています。",  "lat" : "34.850949",  "lng" : "135.58566",  "homepage" : "http://www.takatsuki-osk.ed.jp/abunoyo/",  },
    {  "label" : "清水幼稚園",  "address" : "高槻市宮之川原五丁目４－１",  "telephone" : "072-687-5080",  "fax" : "072-687-5080",  "areacapa" : "408",  "peoplecapa" : "247",  "Category1" : "緊急避難場所",  "Category2" : "災害の危険から緊急的に逃れるための場所　※洪水（河川ごと）、土砂災害、地震の災害種類ごとに指定しています。",  "lat" : "34.865798",  "lng" : "135.597843",  "homepage" : "http://www.takatsuki-osk.ed.jp/shimizuyo/",  },
    {  "label" : "北清水幼稚園",  "address" : "高槻市安岡寺町六丁目２－２",  "telephone" : "072-687-1540",  "fax" : "072-687-1540",  "areacapa" : "389",  "peoplecapa" : "235",  "Category1" : "緊急避難場所",  "Category2" : "災害の危険から緊急的に逃れるための場所　※洪水（河川ごと）、土砂災害、地震の災害種類ごとに指定しています。",  "lat" : "34.880965",  "lng" : "135.605047",  "homepage" : "http://www.takatsuki-osk.ed.jp/kitashimizuyo/",  },
    {  "label" : "芥川幼稚園",  "address" : "高槻市真上町一丁目２－６",  "telephone" : "072-685-1441",  "fax" : "072-685-1441",  "areacapa" : "507",  "peoplecapa" : "307",  "Category1" : "緊急避難場所",  "Category2" : "災害の危険から緊急的に逃れるための場所　※洪水（河川ごと）、土砂災害、地震の災害種類ごとに指定しています。",  "lat" : "34.854639",  "lng" : "135.613282",  "homepage" : "http://www.takatsuki-osk.ed.jp/akutagawayo/",  },
    {  "label" : "日吉台幼稚園",  "address" : "高槻市日吉台一番町２４－１０",  "telephone" : "072-687-1531",  "fax" : "072-687-1531",  "areacapa" : "453",  "peoplecapa" : "274",  "Category1" : "緊急避難場所",  "Category2" : "災害の危険から緊急的に逃れるための場所　※洪水（河川ごと）、土砂災害、地震の災害種類ごとに指定しています。",  "lat" : "34.870561",  "lng" : "135.61259",  "homepage" : "http://www.takatsuki-osk.ed.jp/hiyoshidaiyo/",  },
    {  "label" : "磐手幼稚園",  "address" : "高槻市別所本町９－６",  "telephone" : "072-685-5275",  "fax" : "072-685-5275",  "areacapa" : "357",  "peoplecapa" : "216",  "Category1" : "緊急避難場所",  "Category2" : "災害の危険から緊急的に逃れるための場所　※洪水（河川ごと）、土砂災害、地震の災害種類ごとに指定しています。",  "lat" : "34.86196",  "lng" : "135.628592",  "homepage" : "http://www.takatsuki-osk.ed.jp/iwateyo/",  },
    {  "label" : "五領幼稚園",  "address" : "高槻市五領町１２－１",  "telephone" : "072-669-3620",  "fax" : "072-669-3620",  "areacapa" : "320",  "peoplecapa" : "193",  "Category1" : "緊急避難場所",  "Category2" : "災害の危険から緊急的に逃れるための場所　※洪水（河川ごと）、土砂災害、地震の災害種類ごとに指定しています。",  "lat" : "34.862007",  "lng" : "135.652678",  "homepage" : "http://www.takatsuki-osk.ed.jp/goryoyo/",  },
    {  "label" : "上牧幼稚園",  "address" : "高槻市上牧町四丁目２２－２",  "telephone" : "072-669-3623",  "fax" : "072-669-3623",  "areacapa" : "421",  "peoplecapa" : "255",  "Category1" : "緊急避難場所",  "Category2" : "災害の危険から緊急的に逃れるための場所　※洪水（河川ごと）、土砂災害、地震の災害種類ごとに指定しています。",  "lat" : "34.85965",  "lng" : "135.661401",  "homepage" : "http://www.takatsuki-osk.ed.jp/kanmakiyo/",  },
    {  "label" : "松原幼稚園",  "address" : "高槻市沢良木町１８－２",  "telephone" : "072-676-1413",  "fax" : "072-676-1413",  "areacapa" : "357",  "peoplecapa" : "216",  "Category1" : "緊急避難場所",  "Category2" : "災害の危険から緊急的に逃れるための場所　※洪水（河川ごと）、土砂災害、地震の災害種類ごとに指定しています。",  "lat" : "34.845867",  "lng" : "135.632095",  "homepage" : "http://www.takatsuki-osk.ed.jp/matsubarayo/",  },
    {  "label" : "南大冠幼稚園",  "address" : "高槻市大塚町一丁目４－８",  "telephone" : "072-671-1370",  "fax" : "072-671-1370",  "areacapa" : "453",  "peoplecapa" : "274",  "Category1" : "緊急避難場所",  "Category2" : "災害の危険から緊急的に逃れるための場所　※洪水（河川ごと）、土砂災害、地震の災害種類ごとに指定しています。",  "lat" : "34.826823",  "lng" : "135.633484",  "homepage" : "http://www.takatsuki-osk.ed.jp/minamiokanmuriyo/",  },
    {  "label" : "高槻幼稚園",  "address" : "高槻市本町３－６９",  "telephone" : "072-675-5050",  "fax" : "072-675-5050",  "areacapa" : "324",  "peoplecapa" : "196",  "Category1" : "緊急避難場所",  "Category2" : "災害の危険から緊急的に逃れるための場所　※洪水（河川ごと）、土砂災害、地震の災害種類ごとに指定しています。",  "lat" : "34.845478",  "lng" : "135.626838",  "homepage" : "http://www.takatsuki-osk.ed.jp/takatsukiyo/",  },
    {  "label" : "桜台認定こども園",  "address" : "高槻市登町９－２",  "telephone" : "072-674-5630",  "fax" : "072-674-5635",  "areacapa" : "647",  "peoplecapa" : "392",  "Category1" : "緊急避難場所",  "Category2" : "災害の危険から緊急的に逃れるための場所　※洪水（河川ごと）、土砂災害、地震の災害種類ごとに指定しています。",  "lat" : "34.830892",  "lng" : "135.624638",  "homepage" : "http://www.takatsuki-osk.ed.jp/sakuradaiyo/",  },
    {  "label" : "西大冠幼稚園",  "address" : "高槻市城南町三丁目１－２",  "telephone" : "072-675-5332",  "fax" : "072-675-5332",  "areacapa" : "456",  "peoplecapa" : "276",  "Category1" : "緊急避難場所",  "Category2" : "災害の危険から緊急的に逃れるための場所　※洪水（河川ごと）、土砂災害、地震の災害種類ごとに指定しています。",  "lat" : "34.837057",  "lng" : "135.623238",  "homepage" : "http://www.takatsuki-osk.ed.jp/nishiokanmuriyo/",  },
    {  "label" : "芝生幼稚園",  "address" : "高槻市芝生町三丁目３０－１",  "telephone" : "072-677-2445",  "fax" : "072-677-2445",  "areacapa" : "454",  "peoplecapa" : "275",  "Category1" : "緊急避難場所",  "Category2" : "災害の危険から緊急的に逃れるための場所　※洪水（河川ごと）、土砂災害、地震の災害種類ごとに指定しています。",  "lat" : "34.825718",  "lng" : "135.607461",  "homepage" : "http://www.takatsuki-osk.ed.jp/shiboyo/",  },
    {  "label" : "津之江幼稚園",  "address" : "高槻市津之江北町７－２",  "telephone" : "072-673-9691",  "fax" : "072-673-9691",  "areacapa" : "500",  "peoplecapa" : "303",  "Category1" : "緊急避難場所",  "Category2" : "災害の危険から緊急的に逃れるための場所　※洪水（河川ごと）、土砂災害、地震の災害種類ごとに指定しています。",  "lat" : "34.843067",  "lng" : "135.606109",  "homepage" : "http://www.takatsuki-osk.ed.jp/tsunoeyo/",  },
    {  "label" : "五百住幼稚園",  "address" : "高槻市登美の里町２４－２",  "telephone" : "072-694-7251",  "fax" : "072-694-7251",  "areacapa" : "360",  "peoplecapa" : "218",  "Category1" : "緊急避難場所",  "Category2" : "災害の危険から緊急的に逃れるための場所　※洪水（河川ごと）、土砂災害、地震の災害種類ごとに指定しています。",  "lat" : "34.833235",  "lng" : "135.600509",  "homepage" : "http://www.takatsuki-osk.ed.jp/yosumiyo/",  },
    {  "label" : "富田幼稚園",  "address" : "高槻市昭和台町一丁目１－１",  "telephone" : "072-696-2407",  "fax" : "072-696-2407",  "areacapa" : "290",  "peoplecapa" : "175",  "Category1" : "緊急避難場所",  "Category2" : "災害の危険から緊急的に逃れるための場所　※洪水（河川ごと）、土砂災害、地震の災害種類ごとに指定しています。",  "lat" : "34.828865",  "lng" : "135.591239",  "homepage" : "http://www.takatsuki-osk.ed.jp/tondayo/",  },
    {  "label" : "玉川幼稚園",  "address" : "高槻市牧田町８－２",  "telephone" : "072-695-3354",  "fax" : "072-695-3354",  "areacapa" : "582",  "peoplecapa" : "352",  "Category1" : "緊急避難場所",  "Category2" : "災害の危険から緊急的に逃れるための場所　※洪水（河川ごと）、土砂災害、地震の災害種類ごとに指定しています。",  "lat" : "34.819529",  "lng" : "135.604098",  "homepage" : "http://www.takatsuki-osk.ed.jp/tamagawayo/",  },
    {  "label" : "三箇牧幼稚園",  "address" : "高槻市三島江一丁目１３－６",  "telephone" : "072-678-0014",  "fax" : "072-678-0014",  "areacapa" : "357",  "peoplecapa" : "216",  "Category1" : "緊急避難場所",  "Category2" : "災害の危険から緊急的に逃れるための場所　※洪水（河川ごと）、土砂災害、地震の災害種類ごとに指定しています。",  "lat" : "34.805771",  "lng" : "135.613856",  "homepage" : "http://www.takatsuki-osk.ed.jp/sangamakiyo/",  },
    {  "label" : "柱本幼稚園",  "address" : "高槻市柱本新町１０－７",  "telephone" : "072-677-2739",  "fax" : "072-677-2739",  "areacapa" : "515",  "peoplecapa" : "312",  "Category1" : "緊急避難場所",  "Category2" : "災害の危険から緊急的に逃れるための場所　※洪水（河川ごと）、土砂災害、地震の災害種類ごとに指定しています。",  "lat" : "34.793262",  "lng" : "135.600718",  "homepage" : "http://www.takatsuki-osk.ed.jp/hashiramotoyo/",  },
    {  "label" : "総合センター",  "address" : "高槻市桃園町２－１",  "telephone" : "072-674-7111",  "fax" : "072-675-8184",  "areacapa" : "1631",  "peoplecapa" : "988",  "Category1" : "緊急避難場所",  "Category2" : "災害の危険から緊急的に逃れるための場所　※洪水（河川ごと）、土砂災害、地震の災害種類ごとに指定しています。",  "lat" : "34.846019",  "lng" : "135.617332",  "homepage" : "http://www.city.takatsuki.osaka.jp/shisei/profilekeikaku/shiyakusho_annai/1326949112262.html",  },
    {  "label" : "障がい者福祉センター",  "address" : "高槻市城内町１－１１",  "telephone" : "072-672-0267",  "fax" : "072-661-3508",  "areacapa" : "316",  "peoplecapa" : "191",  "Category1" : "緊急避難場所",  "Category2" : "災害の危険から緊急的に逃れるための場所　※洪水（河川ごと）、土砂災害、地震の災害種類ごとに指定しています。",  "lat" : "34.844656",  "lng" : "135.623455",  "homepage" : "http://www.city.takatsuki.osaka.jp/kakuka/kenkouf/hukusi/gyomuannai/shogaishafukushi/gyomuannai/fukushicenter.html",  },
    {  "label" : "樫田支所",  "address" : "高槻市大字田能小字スハノ下１１",  "telephone" : "072-688-9124",  "fax" : "072-688-9125",  "areacapa" : "67",  "peoplecapa" : "40",  "Category1" : "緊急避難場所",  "Category2" : "災害の危険から緊急的に逃れるための場所　※洪水（河川ごと）、土砂災害、地震の災害種類ごとに指定しています。",  "lat" : "34.955544",  "lng" : "135.589362",  "homepage" : "http://www.city.takatsuki.osaka.jp/kakuka/shimin/kasida/index.html",  },
    {  "label" : "クロスパル高槻（総合市民交流センター）",  "address" : "高槻市紺屋町１－２",  "telephone" : "072-685-3721",  "fax" : "072-685-3614",  "areacapa" : "3800",  "peoplecapa" : "2303",  "Category1" : "緊急避難場所",  "Category2" : "災害の危険から緊急的に逃れるための場所　※洪水（河川ごと）、土砂災害、地震の災害種類ごとに指定しています。",  "lat" : "34.851940",  "lng" : "135.618922",  "homepage" : "http://www.city.takatsuki.osaka.jp/kurashi/bunka_sports/bunka_koryushisetsu/1327994114940.html",  },
    {  "label" : "地域福祉会館",  "address" : "高槻市城西町４－６",  "telephone" : "072-674-7497",  "fax" : "072-661-4901",  "areacapa" : "177",  "peoplecapa" : "107",  "Category1" : "緊急避難場所",  "Category2" : "災害の危険から緊急的に逃れるための場所　※洪水（河川ごと）、土砂災害、地震の災害種類ごとに指定しています。",  "lat" : "34.844416",  "lng" : "135.616691",  "homepage" : "http://www.city.takatsuki.osaka.jp/shisei/profilekeikaku/shiyakusho_annai/1326949112262.html",  },
    {  "label" : "原公民館",  "address" : "高槻市原８０８－３",  "telephone" : "",  "fax" : "",  "areacapa" : "210",  "peoplecapa" : "127",  "Category1" : "緊急避難場所",  "Category2" : "災害の危険から緊急的に逃れるための場所　※洪水（河川ごと）、土砂災害、地震の災害種類ごとに指定しています。",  "lat" : "34.894373",  "lng" : "135.599535",  "homepage" : "http://www.city.takatsuki.osaka.jp/kurashi/bosaibohan/hinambasho/1321593068073.html",  },
    {  "label" : "高槻北高等学校",  "address" : "高槻市別所本町３６－３",  "telephone" : "072-683-8739",  "fax" : "072-683-0872",  "areacapa" : "1389",  "peoplecapa" : "841",  "Category1" : "緊急避難場所",  "Category2" : "災害の危険から緊急的に逃れるための場所　※洪水（河川ごと）、土砂災害、地震の災害種類ごとに指定しています。",  "lat" : "34.865204",  "lng" : "135.625732",  "homepage" : "http://www.city.takatsuki.osaka.jp/kurashi/bosaibohan/hinambasho/1321593068073.html",  },
    {  "label" : "三島高等学校",  "address" : "高槻市今城町２７－１",  "telephone" : "072-682-5884",  "fax" : "072-682-4706",  "areacapa" : "1071",  "peoplecapa" : "649",  "Category1" : "緊急避難場所",  "Category2" : "災害の危険から緊急的に逃れるための場所　※洪水（河川ごと）、土砂災害、地震の災害種類ごとに指定しています。",  "lat" : "34.846617",  "lng" : "135.596867",  "homepage" : "http://www.city.takatsuki.osaka.jp/kurashi/bosaibohan/hinambasho/1321593068073.html",  },
    {  "label" : "槻の木高等学校",  "address" : "高槻市城内町２－１３",  "telephone" : "072-675-2600",  "fax" : "072-675-2960",  "areacapa" : "1358",  "peoplecapa" : "823",  "Category1" : "緊急避難場所",  "Category2" : "災害の危険から緊急的に逃れるための場所　※洪水（河川ごと）、土砂災害、地震の災害種類ごとに指定しています。",  "lat" : "34.842496",  "lng" : "135.621028",  "homepage" : "http://www.city.takatsuki.osaka.jp/kurashi/bosaibohan/hinambasho/1321593068073.html",  },
    {  "label" : "芥川高等学校",  "address" : "高槻市浦堂一丁目１２－１",  "telephone" : "072-689-0109",  "fax" : "072-689-3528",  "areacapa" : "1412",  "peoplecapa" : "855",  "Category1" : "緊急避難場所",  "Category2" : "災害の危険から緊急的に逃れるための場所　※洪水（河川ごと）、土砂災害、地震の災害種類ごとに指定しています。",  "lat" : "34.862887",  "lng" : "135.600686",  "homepage" : "http://www.city.takatsuki.osaka.jp/kurashi/bosaibohan/hinambasho/1321593068073.html",  },
    {  "label" : "阿武野高等学校",  "address" : "高槻市氷室町三丁目３８－１",  "telephone" : "072-693-4670",  "fax" : "072-693-2448",  "areacapa" : "1379",  "peoplecapa" : "835",  "Category1" : "緊急避難場所",  "Category2" : "災害の危険から緊急的に逃れるための場所　※洪水（河川ごと）、土砂災害、地震の災害種類ごとに指定しています。",  "lat" : "34.84859",  "lng" : "135.586481",  "homepage" : "http://www.city.takatsuki.osaka.jp/kurashi/bosaibohan/hinambasho/1321593068073.html",  },
    {  "label" : "大冠高等学校",  "address" : "高槻市大塚町四丁目５０－１",  "telephone" : "072-672-3450",  "fax" : "072-672-2533",  "areacapa" : "1412",  "peoplecapa" : "855",  "Category1" : "緊急避難場所",  "Category2" : "災害の危険から緊急的に逃れるための場所　※洪水（河川ごと）、土砂災害、地震の災害種類ごとに指定しています。",  "lat" : "34.81958",  "lng" : "135.629028",  "homepage" : "http://www.city.takatsuki.osaka.jp/kurashi/bosaibohan/hinambasho/1321593068073.html",  },
    {  "label" : "上の池公園周辺",  "address" : "高槻市阿武野ニ丁目３",  "telephone" : "",  "fax" : "",  "areacapa" : "",  "peoplecapa" : "",  "Category1" : "広域避難地",  "Category2" : "火災の延焼拡大によって生じる輻射熱、熱気流から住民等の安全を確保できる概ね10ヘクタール以上の空地",  "lat" : "34.858571",  "lng" : "135.580457",  "homepage" : "http://www.city.takatsuki.osaka.jp/kurashi/bosaibohan/hinambasho/1321581881275.html",  },
    {  "label" : "南平台中央公園周辺",  "address" : "高槻市南平台五丁目",  "telephone" : "",  "fax" : "",  "areacapa" : "",  "peoplecapa" : "",  "Category1" : "広域避難地",  "Category2" : "火災の延焼拡大によって生じる輻射熱、熱気流から住民等の安全を確保できる概ね10ヘクタール以上の空地",  "lat" : "34.861076",  "lng" : "135.588895",  "homepage" : "http://www.city.takatsuki.osaka.jp/kurashi/bosaibohan/hinambasho/1321581881275.html",  },
    {  "label" : "郡家老人福祉センター周辺",  "address" : "高槻市郡家新町",  "telephone" : "",  "fax" : "",  "areacapa" : "",  "peoplecapa" : "",  "Category1" : "広域避難地",  "Category2" : "火災の延焼拡大によって生じる輻射熱、熱気流から住民等の安全を確保できる概ね10ヘクタール以上の空地",  "lat" : "34.851004",  "lng" : "135.594667",  "homepage" : "http://www.city.takatsuki.osaka.jp/kurashi/bosaibohan/hinambasho/1321581881275.html",  },
    {  "label" : "奥坂小学校周辺",  "address" : "高槻市古曽部町四丁目",  "telephone" : "",  "fax" : "",  "areacapa" : "",  "peoplecapa" : "",  "Category1" : "広域避難地",  "Category2" : "火災の延焼拡大によって生じる輻射熱、熱気流から住民等の安全を確保できる概ね10ヘクタール以上の空地",  "lat" : "34.863352",  "lng" : "135.623973",  "homepage" : "http://www.city.takatsuki.osaka.jp/kurashi/bosaibohan/hinambasho/1321581881275.html",  },
    {  "label" : "芥川河川敷周辺",  "address" : "高槻市清福寺町",  "telephone" : "",  "fax" : "",  "areacapa" : "",  "peoplecapa" : "",  "Category1" : "広域避難地",  "Category2" : "火災の延焼拡大によって生じる輻射熱、熱気流から住民等の安全を確保できる概ね10ヘクタール以上の空地",  "lat" : "34.853491",  "lng" : "135.60612",  "homepage" : "http://www.city.takatsuki.osaka.jp/kurashi/bosaibohan/hinambasho/1321581881275.html",  },
    {  "label" : "城跡公園周辺",  "address" : "高槻市城内町",  "telephone" : "",  "fax" : "",  "areacapa" : "",  "peoplecapa" : "",  "Category1" : "広域避難地",  "Category2" : "火災の延焼拡大によって生じる輻射熱、熱気流から住民等の安全を確保できる概ね10ヘクタール以上の空地",  "lat" : "34.842428",  "lng" : "135.623077",  "homepage" : "http://www.city.takatsuki.osaka.jp/kurashi/bosaibohan/hinambasho/1321581881275.html",  },
    {  "label" : "総合スポーツセンター周辺",  "address" : "高槻市芝生町四丁目１",  "telephone" : "",  "fax" : "",  "areacapa" : "",  "peoplecapa" : "",  "Category1" : "広域避難地",  "Category2" : "火災の延焼拡大によって生じる輻射熱、熱気流から住民等の安全を確保できる概ね10ヘクタール以上の空地",  "lat" : "34.824604",  "lng" : "135.609028",  "homepage" : "http://www.city.takatsuki.osaka.jp/kurashi/bosaibohan/hinambasho/1321581881275.html",  },
    {  "label" : "下水処理場・南大樋運動広場周辺",  "address" : "高槻市南大樋町",  "telephone" : "",  "fax" : "",  "areacapa" : "",  "peoplecapa" : "",  "Category1" : "広域避難地",  "Category2" : "火災の延焼拡大によって生じる輻射熱、熱気流から住民等の安全を確保できる概ね10ヘクタール以上の空地",  "lat" : "34.821638",  "lng" : "135.62445",  "homepage" : "http://www.city.takatsuki.osaka.jp/kurashi/bosaibohan/hinambasho/1321581881275.html",  },
    {  "label" : "淀川河川敷（前島地区）",  "address" : "高槻市大字前島",  "telephone" : "",  "fax" : "",  "areacapa" : "",  "peoplecapa" : "",  "Category1" : "広域避難地",  "Category2" : "火災の延焼拡大によって生じる輻射熱、熱気流から住民等の安全を確保できる概ね10ヘクタール以上の空地",  "lat" : "34.841037",  "lng" : "135.646557",  "homepage" : "http://www.city.takatsuki.osaka.jp/kurashi/bosaibohan/hinambasho/1321581881275.html",  },
    {  "label" : "淀川河川敷（大塚地区）",  "address" : "高槻市大字大塚",  "telephone" : "",  "fax" : "",  "areacapa" : "",  "peoplecapa" : "",  "Category1" : "広域避難地",  "Category2" : "火災の延焼拡大によって生じる輻射熱、熱気流から住民等の安全を確保できる概ね10ヘクタール以上の空地",  "lat" : "34.825361",  "lng" : "135.641198",  "homepage" : "http://www.city.takatsuki.osaka.jp/kurashi/bosaibohan/hinambasho/1321581881275.html",  },
    {  "label" : "淀川河川敷（三島江地区）",  "address" : "高槻市大字三島江",  "telephone" : "",  "fax" : "",  "areacapa" : "",  "peoplecapa" : "",  "Category1" : "広域避難地",  "Category2" : "火災の延焼拡大によって生じる輻射熱、熱気流から住民等の安全を確保できる概ね10ヘクタール以上の空地",  "lat" : "34.802561",  "lng" : "135.613743",  "homepage" : "http://www.city.takatsuki.osaka.jp/kurashi/bosaibohan/hinambasho/1321581881275.html",  },
    {  "label" : "芝谷町中央公園周辺",  "address" : "高槻市芝谷町",  "telephone" : "",  "fax" : "",  "areacapa" : "",  "peoplecapa" : "",  "Category1" : "準広域避難地",  "Category2" : "火災の延焼拡大によって生じる輻射熱、熱気流から住民等の安全を確保できる概ね2ヘクタール以上の空地",  "lat" : "34.870482",  "lng" : "135.608502",  "homepage" : "http://www.city.takatsuki.osaka.jp/kurashi/bosaibohan/hinambasho/1321581881275.html",  },
    {  "label" : "緑が丘公園周辺",  "address" : "高槻市緑が丘二丁",  "telephone" : "",  "fax" : "",  "areacapa" : "",  "peoplecapa" : "",  "Category1" : "準広域避難地",  "Category2" : "火災の延焼拡大によって生じる輻射熱、熱気流から住民等の安全を確保できる概ね2ヘクタール以上の空地",  "lat" : "34.86344",  "lng" : "135.605289",  "homepage" : "http://www.city.takatsuki.osaka.jp/kurashi/bosaibohan/hinambasho/1321581881275.html",  },
    {  "label" : "芥川公園周辺",  "address" : "高槻市南芥川町",  "telephone" : "",  "fax" : "",  "areacapa" : "",  "peoplecapa" : "",  "Category1" : "準広域避難地",  "Category2" : "火災の延焼拡大によって生じる輻射熱、熱気流から住民等の安全を確保できる概ね2ヘクタール以上の空地",  "lat" : "34.849041",  "lng" : "135.612016",  "homepage" : "http://www.city.takatsuki.osaka.jp/kurashi/bosaibohan/hinambasho/1321581881275.html",  },
    {  "label" : "津之江公園周辺",  "address" : "高槻市津之江町二丁目",  "telephone" : "",  "fax" : "",  "areacapa" : "",  "peoplecapa" : "",  "Category1" : "準広域避難地",  "Category2" : "火災の延焼拡大によって生じる輻射熱、熱気流から住民等の安全を確保できる概ね2ヘクタール以上の空地",  "lat" : "34.834159",  "lng" : "135.611699",  "homepage" : "http://www.city.takatsuki.osaka.jp/kurashi/bosaibohan/hinambasho/1321581881275.html",  },
    {  "label" : "高槻赤十字病院",  "address" : "高槻市阿武野一丁目１－１",  "telephone" : "072-696-0571",  "fax" : "",  "areacapa" : "",  "peoplecapa" : "",  "Category1" : "救護拠点病院兼救護所",  "Category2" : "主として被災者の傷害の程度に基づく治療の選択（トリアージ）や搬送前の応急処置、軽症者の治療を行う拠点",  "lat" : "34.855239",  "lng" : "135.577319",  "homepage" : "http://www.city.takatsuki.osaka.jp/kurashi/bosaibohan/hinambasho/1321602861065.html",  },
    {  "label" : "北摂総合病院",  "address" : "高槻市北柳川町６－２４",  "telephone" : "072-696-2121",  "fax" : "",  "areacapa" : "",  "peoplecapa" : "",  "Category1" : "救護拠点病院兼救護所",  "Category2" : "主として被災者の傷害の程度に基づく治療の選択（トリアージ）や搬送前の応急処置、軽症者の治療を行う拠点",  "lat" : "34.826361",  "lng" : "135.593369",  "homepage" : "http://www.city.takatsuki.osaka.jp/kurashi/bosaibohan/hinambasho/1321602861065.html",  },
    {  "label" : "大阪医科大学三島南病院",  "address" : "高槻市玉川新町８－１",  "telephone" : "072-677-1333",  "fax" : "",  "areacapa" : "",  "peoplecapa" : "",  "Category1" : "救護拠点病院兼救護所",  "Category2" : "主として被災者の傷害の程度に基づく治療の選択（トリアージ）や搬送前の応急処置、軽症者の治療を行う拠点",  "lat" : "34.815547",  "lng" : "135.604355",  "homepage" : "http://www.city.takatsuki.osaka.jp/kurashi/bosaibohan/hinambasho/1321602861065.html",  },
    {  "label" : "みどりヶ丘病院",  "address" : "高槻市真上町三丁目１３－１",  "telephone" : "072-681-5717",  "fax" : "",  "areacapa" : "",  "peoplecapa" : "",  "Category1" : "救護拠点病院兼救護所",  "Category2" : "主として被災者の傷害の程度に基づく治療の選択（トリアージ）や搬送前の応急処置、軽症者の治療を行う拠点",  "lat" : "34.859830",  "lng" : "135.605067",  "homepage" : "http://www.city.takatsuki.osaka.jp/kurashi/bosaibohan/hinambasho/1321602861065.html",  },
    {  "label" : "高槻病院",  "address" : "高槻市古曽部町一丁目３－１３",  "telephone" : "072-681-3801",  "fax" : "",  "areacapa" : "",  "peoplecapa" : "",  "Category1" : "救護拠点病院兼救護所",  "Category2" : "主として被災者の傷害の程度に基づく治療の選択（トリアージ）や搬送前の応急処置、軽症者の治療を行う拠点",  "lat" : "34.855950",  "lng" : "135.620835",  "homepage" : "http://www.city.takatsuki.osaka.jp/kurashi/bosaibohan/hinambasho/1321602861065.html",  },
    {  "label" : "第一東和会病院",  "address" : "高槻市宮野町２－１７",  "telephone" : "072-671-1008",  "fax" : "",  "areacapa" : "",  "peoplecapa" : "",  "Category1" : "救護拠点病院兼救護所",  "Category2" : "主として被災者の傷害の程度に基づく治療の選択（トリアージ）や搬送前の応急処置、軽症者の治療を行う拠点",  "lat" : "34.854260",  "lng" : "135.637615",  "homepage" : "http://www.city.takatsuki.osaka.jp/kurashi/bosaibohan/hinambasho/1321602861065.html",  },
    {  "label" : "うえだ下田部病院",  "address" : "高槻市登町３３－１",  "telephone" : "072-673-7722",  "fax" : "",  "areacapa" : "",  "peoplecapa" : "",  "Category1" : "救護拠点病院兼救護所",  "Category2" : "主として被災者の傷害の程度に基づく治療の選択（トリアージ）や搬送前の応急処置、軽症者の治療を行う拠点",  "lat" : "34.824109",  "lng" : "135.619247",  "homepage" : "http://www.city.takatsuki.osaka.jp/kurashi/bosaibohan/hinambasho/1321602861065.html",  },
    {  "label" : "北清水小学校",  "address" : "高槻市安岡寺町六丁目２－１",  "telephone" : "072-688-4316",  "fax" : "",  "areacapa" : "",  "peoplecapa" : "",  "Category1" : "救護所",  "Category2" : "主として被災者の傷害の程度に基づく治療の選択（トリアージ）や搬送前の応急処置、軽症者の治療を行う拠点",  "lat" : "34.881759",  "lng" : "135.604570",  "homepage" : "http://www.takatsuki-osk.ed.jp/kitashimizu/",  },
    {  "label" : "日吉台小学校",  "address" : "高槻市日吉台一番町２４－１８",  "telephone" : "072-689-1530",  "fax" : "072-689-1585",  "areacapa" : "",  "peoplecapa" : "",  "Category1" : "救護所",  "Category2" : "主として被災者の傷害の程度に基づく治療の選択（トリアージ）や搬送前の応急処置、軽症者の治療を行う拠点",  "lat" : "34.869965",  "lng" : "135.613110",  "homepage" : "http://www.takatsuki-osk.ed.jp/hiyoshidai/",  },
    {  "label" : "南平台小学校",  "address" : "高槻市南平台五丁目２０－１",  "telephone" : "072-695-5751",  "fax" : "072-695-5752",  "areacapa" : "",  "peoplecapa" : "",  "Category1" : "救護所",  "Category2" : "主として被災者の傷害の程度に基づく治療の選択（トリアージ）や搬送前の応急処置、軽症者の治療を行う拠点",  "lat" : "34.862289",  "lng" : "135.590537",  "homepage" : "http://www.takatsuki-osk.ed.jp/nanpeidai/",  },
    {  "label" : "郡家小学校",  "address" : "高槻市郡家新町６８－１",  "telephone" : "072-683-1881",  "fax" : "072-683-1883",  "areacapa" : "",  "peoplecapa" : "",  "Category1" : "救護所",  "Category2" : "主として被災者の傷害の程度に基づく治療の選択（トリアージ）や搬送前の応急処置、軽症者の治療を行う拠点",  "lat" : "34.851337",  "lng" : "135.596759",  "homepage" : "http://www.takatsuki-osk.ed.jp/gunge/",  },
    {  "label" : "高槻小学校",  "address" : "高槻市本町３－６９",  "telephone" : "072-674-0403",  "fax" : "072-674-0401",  "areacapa" : "",  "peoplecapa" : "",  "Category1" : "救護所",  "Category2" : "主として被災者の傷害の程度に基づく治療の選択（トリアージ）や搬送前の応急処置、軽症者の治療を行う拠点",  "lat" : "34.845032",  "lng" : "135.626199",  "homepage" : "http://www.takatsuki-osk.ed.jp/takasyo/",  },
    {  "label" : "五百住小学校",  "address" : "高槻市登美の里町２４－１",  "telephone" : "072-694-7277",  "fax" : "072-694-7278",  "areacapa" : "",  "peoplecapa" : "",  "Category1" : "救護所",  "Category2" : "主として被災者の傷害の程度に基づく治療の選択（トリアージ）や搬送前の応急処置、軽症者の治療を行う拠点",  "lat" : "34.834325",  "lng" : "135.600750",  "homepage" : "http://www.takatsuki-osk.ed.jp/yosumi/",  },
    {  "label" : "三箇牧小学校",  "address" : "高槻市三島江一丁目１３－６",  "telephone" : "072-677-5836",  "fax" : "072-677-5870",  "areacapa" : "",  "peoplecapa" : "",  "Category1" : "救護所",  "Category2" : "主として被災者の傷害の程度に基づく治療の選択（トリアージ）や搬送前の応急処置、軽症者の治療を行う拠点",  "lat" : "34.804871",  "lng" : "135.613153",  "homepage" : "http://www.takatsuki-osk.ed.jp/sangamaki/",  },
    {  "label" : "五領小学校",  "address" : "高槻市五領町１２－１",  "telephone" : "072-669-0181",  "fax" : "072-669-0183",  "areacapa" : "",  "peoplecapa" : "",  "Category1" : "救護所",  "Category2" : "主として被災者の傷害の程度に基づく治療の選択（トリアージ）や搬送前の応急処置、軽症者の治療を行う拠点",  "lat" : "34.861760",  "lng" : "135.652678",  "homepage" : "http://www.takatsuki-osk.ed.jp/goryosyo/",  },
    {  "label" : "芝生小学校",  "address" : "高槻市芝生町三丁目３０－１",  "telephone" : "072-677-2721",  "fax" : "072-677-2720",  "areacapa" : "",  "peoplecapa" : "",  "Category1" : "救護所",  "Category2" : "主として被災者の傷害の程度に基づく治療の選択（トリアージ）や搬送前の応急処置、軽症者の治療を行う拠点",  "lat" : "34.825800",  "lng" : "135.608776",  "homepage" : "http://www.takatsuki-osk.ed.jp/shibo/",  },
    {  "label" : "高槻島本夜間休日応急診療所",  "address" : "高槻市南芥川町１１－１",  "telephone" : "072-683-9999",  "fax" : "",  "areacapa" : "",  "peoplecapa" : "",  "Category1" : "歯科救護所",  "Category2" : "",  "lat" : "34.849210",  "lng" : "135.611144",  "homepage" : "http://www.city.takatsuki.osaka.jp/kurashi/hoken_iryo/1326692112116.html",  },
    {  "label" : "高槻市立口腔保健センター",  "address" : "高槻市城東町５－１",  "telephone" : "072-661-9105",  "fax" : "",  "areacapa" : "",  "peoplecapa" : "",  "Category1" : "歯科救護所",  "Category2" : "",  "lat" : "34.843207",  "lng" : "135.628975",  "homepage" : "http://www.city.takatsuki.osaka.jp/kurashi/bosaibohan/hinambasho/1321593068073.html",  },
    {  "label" : "大冠浄水場",  "address" : "高槻市西冠三丁目４７－１",  "telephone" : "",  "fax" : "",  "areacapa" : "",  "peoplecapa" : "",  "Category1" : "給水拠点",  "Category2" : "災害時に、給水タンク車等によって医療機関、各避難所等へ給水するための拠点",  "lat" : "34.832474",  "lng" : "135.625992",  "homepage" : "http://www.city.takatsuki.osaka.jp/kakuka/suido/jousui/46.html",  },
    {  "label" : "奈佐原受水場",  "address" : "高槻市氷室町五丁目１０－１",  "telephone" : "",  "fax" : "",  "areacapa" : "",  "peoplecapa" : "",  "Category1" : "給水拠点",  "Category2" : "災害時に、給水タンク車等によって医療機関、各避難所等へ給水するための拠点",  "lat" : "34.856485",  "lng" : "135.5861",  "homepage" : "http://www.city.takatsuki.osaka.jp/kakuka/suido/jousui/46.html",  },
    {  "label" : "清水受水場",  "address" : "高槻市大蔵司二丁目５１－２",  "telephone" : "",  "fax" : "",  "areacapa" : "",  "peoplecapa" : "",  "Category1" : "給水拠点",  "Category2" : "災害時に、給水タンク車等によって医療機関、各避難所等へ給水するための拠点",  "lat" : "34.862894",  "lng" : "135.597661",  "homepage" : "http://www.city.takatsuki.osaka.jp/kakuka/suido/jousui/46.html",  },
    {  "label" : "阿武野配水池",  "address" : "高槻市奈佐原二丁目１０－１",  "telephone" : "",  "fax" : "",  "areacapa" : "",  "peoplecapa" : "",  "Category1" : "給水拠点",  "Category2" : "災害時に、給水タンク車等によって医療機関、各避難所等へ給水するための拠点",  "lat" : "34.860245",  "lng" : "135.578186",  "homepage" : "http://www.city.takatsuki.osaka.jp/kakuka/suido/jousui/46.html",  },
    {  "label" : "日吉台配水池",  "address" : "高槻市日吉台三番町６７－２",  "telephone" : "",  "fax" : "",  "areacapa" : "",  "peoplecapa" : "",  "Category1" : "給水拠点",  "Category2" : "災害時に、給水タンク車等によって医療機関、各避難所等へ給水するための拠点",  "lat" : "34.876287",  "lng" : "135.609712",  "homepage" : "http://www.city.takatsuki.osaka.jp/kakuka/suido/jousui/46.html",  },
    {  "label" : "やまびこ園",  "address" : "高槻市山手町二丁目２－１",  "telephone" : "072-681-5811",  "fax" : "",  "areacapa" : "",  "peoplecapa" : "",  "Category1" : "障がい者等避難施設",  "Category2" : "",  "lat" : "34.861745",  "lng" : "135.639433",  "homepage" : "http://www.city.takatsuki.osaka.jp/kurashi/bosaibohan/hinambasho/1321593068073.html",  },
    {  "label" : "高槻温心寮",  "address" : "高槻市塚原一丁目９－１",  "telephone" : "072-696-0678",  "fax" : "",  "areacapa" : "",  "peoplecapa" : "",  "Category1" : "障がい者等避難施設",  "Category2" : "",  "lat" : "34.855209",  "lng" : "135.573318",  "homepage" : "http://www.city.takatsuki.osaka.jp/kurashi/bosaibohan/hinambasho/1321593068073.html",  },
    {  "label" : "三島の郷",  "address" : "高槻市大字原９２４－４",  "telephone" : "072-688-0768",  "fax" : "",  "areacapa" : "",  "peoplecapa" : "",  "Category1" : "障がい者等避難施設",  "Category2" : "",  "lat" : "34.906409",  "lng" : "135.602786",  "homepage" : "http://www.city.takatsuki.osaka.jp/kurashi/bosaibohan/hinambasho/1321593068073.html",  },
    {  "label" : "地域生活支援センター光",  "address" : "高槻市宮之川原二丁目９－１",  "telephone" : "072-680-1110",  "fax" : "",  "areacapa" : "",  "peoplecapa" : "",  "Category1" : "障がい者等避難施設",  "Category2" : "",  "lat" : "34.871169",  "lng" : "135.600616",  "homepage" : "http://www.city.takatsuki.osaka.jp/kurashi/bosaibohan/hinambasho/1321593068073.html",  },
    {  "label" : "サニースポット",  "address" : "高槻市富田町四丁目７－１６",  "telephone" : "072-697-7080",  "fax" : "",  "areacapa" : "",  "peoplecapa" : "",  "Category1" : "障がい者等避難施設",  "Category2" : "",  "lat" : "34.831249",  "lng" : "135.592055",  "homepage" : "http://www.city.takatsuki.osaka.jp/kurashi/bosaibohan/hinambasho/1321593068073.html",  },
    {  "label" : "友遊の里",  "address" : "高槻市大字田能小字宮ノ前１０８８",  "telephone" : "072-680-0222",  "fax" : "",  "areacapa" : "",  "peoplecapa" : "",  "Category1" : "障がい者等避難施設",  "Category2" : "",  "lat" : "34.960732",  "lng" : "135.59177",  "homepage" : "http://www.city.takatsuki.osaka.jp/kurashi/bosaibohan/hinambasho/1321593068073.html",  },
    {  "label" : "共働舎花の会",  "address" : "高槻市南平台三丁目２９－９",  "telephone" : "072-692-2859",  "fax" : "",  "areacapa" : "",  "peoplecapa" : "",  "Category1" : "障がい者等避難施設",  "Category2" : "",  "lat" : "34.855468",  "lng" : "135.587216",  "homepage" : "http://www.city.takatsuki.osaka.jp/kurashi/bosaibohan/hinambasho/1321593068073.html",  },
    {  "label" : "第２共働舎花の会",  "address" : "高槻市南平台三丁目２９－１０",  "telephone" : "072-697-7033",  "fax" : "",  "areacapa" : "",  "peoplecapa" : "",  "Category1" : "障がい者等避難施設",  "Category2" : "",  "lat" : "34.85571",  "lng" : "135.586905",  "homepage" : "http://www.city.takatsuki.osaka.jp/kurashi/bosaibohan/hinambasho/1321593068073.html",  },
    {  "label" : "萩の杜",  "address" : "高槻市大字萩谷１４－１",  "telephone" : "072-699-0099",  "fax" : "",  "areacapa" : "",  "peoplecapa" : "",  "Category1" : "障がい者等避難施設",  "Category2" : "",  "lat" : "34.885282",  "lng" : "135.57034",  "homepage" : "http://www.city.takatsuki.osaka.jp/kurashi/bosaibohan/hinambasho/1321593068073.html",  },
    {  "label" : "ジョブサイトひむろ",  "address" : "高槻市氷室町一丁目１４－２７",  "telephone" : "072-697-2234",  "fax" : "",  "areacapa" : "",  "peoplecapa" : "",  "Category1" : "障がい者等避難施設",  "Category2" : "",  "lat" : "34.847870",  "lng" : "135.595795",  "homepage" : "http://www.city.takatsuki.osaka.jp/kurashi/bosaibohan/hinambasho/1321593068073.html",  },
    {  "label" : "高槻地域生活総合支援センター　ぷれいすＢｅ",  "address" : "高槻市郡家本町５－２",  "telephone" : "072-681-4700",  "fax" : "",  "areacapa" : "",  "peoplecapa" : "",  "Category1" : "障がい者等避難施設",  "Category2" : "",  "lat" : "34.854205",  "lng" : "135.595971",  "homepage" : "http://www.city.takatsuki.osaka.jp/kurashi/bosaibohan/hinambasho/1321593068073.html",  },
    {  "label" : "わかくさ障害者作業所",  "address" : "高槻市郡家新町４８－２",  "telephone" : "072-695-5566",  "fax" : "",  "areacapa" : "",  "peoplecapa" : "",  "Category1" : "障がい者等避難施設",  "Category2" : "",  "lat" : "34.851982",  "lng" : "135.594072",  "homepage" : "http://www.city.takatsuki.osaka.jp/kurashi/bosaibohan/hinambasho/1321593068073.html",  },
    {  "label" : "わかくさ南障害者作業所",  "address" : "高槻市大字唐崎１２７７",  "telephone" : "072-679-3043",  "fax" : "",  "areacapa" : "",  "peoplecapa" : "",  "Category1" : "障がい者等避難施設",  "Category2" : "",  "lat" : "34.806996",  "lng" : "135.612845",  "homepage" : "http://www.city.takatsuki.osaka.jp/kurashi/bosaibohan/hinambasho/1321593068073.html",  },
    {  "label" : "高槻市立障がい者福祉センター",  "address" : "高槻市城内町１－１１",  "telephone" : "072-672-0267",  "fax" : "",  "areacapa" : "",  "peoplecapa" : "",  "Category1" : "障がい者等避難施設",  "Category2" : "",  "lat" : "34.844656",  "lng" : "135.623455",  "homepage" : "http://www.city.takatsuki.osaka.jp/kakuka/kenkouf/hukusi/gyomuannai/shogaishafukushi/gyomuannai/fukushicenter.html",  },
    {  "label" : "高槻市立療育園",  "address" : "高槻市郡家本町５－３",  "telephone" : "072-681-6420",  "fax" : "",  "areacapa" : "",  "peoplecapa" : "",  "Category1" : "障がい者等避難施設",  "Category2" : "",  "lat" : "34.854147",  "lng" : "135.595322",  "homepage" : "http://www.city.takatsuki.osaka.jp/kakuka/kodomo/kosodat/gyomuannai/kosodate_shien/jidou_hattatu/mebae.html",  },
    {  "label" : "高槻市立うの花療育園",  "address" : "高槻市郡家本町５－５",  "telephone" : "072-685-3803",  "fax" : "",  "areacapa" : "",  "peoplecapa" : "",  "Category1" : "障がい者等避難施設",  "Category2" : "",  "lat" : "34.854119",  "lng" : "135.595944",  "homepage" : "http://www.city.takatsuki.osaka.jp/kakuka/kodomo/kosodat/gyomuannai/kosodate_shien/jidou_hattatu/mebae.html",  },
    {  "label" : "生活支援総合施設フォレスタ",  "address" : "高槻市郡家本町１４－５",  "telephone" : "072-686-1131",  "fax" : "",  "areacapa" : "",  "peoplecapa" : "",  "Category1" : "障がい者等避難施設",  "Category2" : "",  "lat" : "34.853705",  "lng" : "135.598373",  "homepage" : "http://www.city.takatsuki.osaka.jp/kurashi/bosaibohan/hinambasho/1321593068073.html",  },
    {  "label" : "特別養護老人ホーム　高槻荘",  "address" : "高槻市郡家新町４８－７",  "telephone" : "072-682-6652",  "fax" : "",  "areacapa" : "",  "peoplecapa" : "",  "Category1" : "高齢者等避難施設",  "Category2" : "",  "lat" : "34.851827",  "lng" : "135.595649",  "homepage" : "http://www.city.takatsuki.osaka.jp/kakuka/kenkouf/chouju/gyomuannai/sisetunoriyou/kaigokorei/1330069899779.html",  },
    {  "label" : "養護老人ホーム　槻ノ木荘",  "address" : "高槻市塚原一丁目８－１",  "telephone" : "072-694-0716",  "fax" : "",  "areacapa" : "",  "peoplecapa" : "",  "Category1" : "高齢者等避難施設",  "Category2" : "",  "lat" : "34.856091",  "lng" : "135.573499",  "homepage" : "http://www.city.takatsuki.osaka.jp/kakuka/kenkouf/chouju/gyomuannai/sisetunoriyou/kaigokorei/1330043895684.html",  },
    {  "label" : "特別養護老人ホーム　れんげ荘",  "address" : "高槻市三島江四丁目３８－７",  "telephone" : "072-677-5888",  "fax" : "",  "areacapa" : "",  "peoplecapa" : "",  "Category1" : "高齢者等避難施設",  "Category2" : "",  "lat" : "34.796825",  "lng" : "135.609199",  "homepage" : "http://www.city.takatsuki.osaka.jp/kakuka/kenkouf/chouju/gyomuannai/sisetunoriyou/kaigokorei/1330069899779.html",  },
    {  "label" : "特別養護老人ホーム　高槻けやきの郷",  "address" : "高槻市番田一丁目６０－１",  "telephone" : "072-662-5888",  "fax" : "",  "areacapa" : "",  "peoplecapa" : "",  "Category1" : "高齢者等避難施設",  "Category2" : "",  "lat" : "34.818011",  "lng" : "135.624751",  "homepage" : "http://www.city.takatsuki.osaka.jp/kakuka/kenkouf/chouju/gyomuannai/sisetunoriyou/kaigokorei/1330069899779.html",  },
    {  "label" : "特別養護老人ホーム　ミス・ブール記念ホーム",  "address" : "高槻市松が丘一丁目２１－９",  "telephone" : "072-688-5138",  "fax" : "",  "areacapa" : "",  "peoplecapa" : "",  "Category1" : "高齢者等避難施設",  "Category2" : "",  "lat" : "34.871331",  "lng" : "135.599474",  "homepage" : "http://www.city.takatsuki.osaka.jp/kakuka/kenkouf/chouju/gyomuannai/sisetunoriyou/kaigokorei/1330069899779.html",  },
    {  "label" : "特別養護老人ホーム　ひばり苑",  "address" : "高槻市三箇牧二丁目２０－３",  "telephone" : "072-679-1105",  "fax" : "",  "areacapa" : "",  "peoplecapa" : "",  "Category1" : "高齢者等避難施設",  "Category2" : "",  "lat" : "34.797874",  "lng" : "135.601807",  "homepage" : "http://www.city.takatsuki.osaka.jp/kakuka/kenkouf/chouju/gyomuannai/sisetunoriyou/kaigokorei/1330069899779.html",  },
    {  "label" : "特別養護老人ホーム　高槻ともしび苑",  "address" : "高槻市安岡寺町六丁目６－１",  "telephone" : "072-689-2772",  "fax" : "",  "areacapa" : "",  "peoplecapa" : "",  "Category1" : "高齢者等避難施設",  "Category2" : "",  "lat" : "34.881678",  "lng" : "135.606678",  "homepage" : "http://www.city.takatsuki.osaka.jp/kakuka/kenkouf/chouju/gyomuannai/sisetunoriyou/kaigokorei/1330069899779.html",  },
    {  "label" : "特別養護老人ホーム　エイペックスひろの",  "address" : "高槻市前島一丁目３６－１",  "telephone" : "072-669-5701",  "fax" : "",  "areacapa" : "",  "peoplecapa" : "",  "Category1" : "高齢者等避難施設",  "Category2" : "",  "lat" : "34.843584",  "lng" : "135.645205",  "homepage" : "http://www.city.takatsuki.osaka.jp/kakuka/kenkouf/chouju/gyomuannai/sisetunoriyou/kaigokorei/1330069899779.html",  },
    {  "label" : "特別養護老人ホーム　リヴェスタひろの",  "address" : "高槻市唐崎南三丁目３０－５",  "telephone" : "072-679-2200",  "fax" : "",  "areacapa" : "",  "peoplecapa" : "",  "Category1" : "高齢者等避難施設",  "Category2" : "",  "lat" : "34.809414",  "lng" : "135.61303",  "homepage" : "http://www.city.takatsuki.osaka.jp/kakuka/kenkouf/chouju/gyomuannai/sisetunoriyou/kaigokorei/1330069899779.html",  },
    {  "label" : "高槻黄金の里特別養護老人ホーム",  "address" : "高槻市黄金の里一丁目１４－８",  "telephone" : "072-687-3681",  "fax" : "",  "areacapa" : "",  "peoplecapa" : "",  "Category1" : "高齢者等避難施設",  "Category2" : "",  "lat" : "34.874748",  "lng" : "135.592224",  "homepage" : "http://www.city.takatsuki.osaka.jp/kakuka/kenkouf/chouju/gyomuannai/sisetunoriyou/kaigokorei/1330069899779.html",  },
    {  "label" : "グリーン特別養護老人ホーム",  "address" : "高槻市奈佐原四丁目７－１５",  "telephone" : "072-690-3331",  "fax" : "",  "areacapa" : "",  "peoplecapa" : "",  "Category1" : "高齢者等避難施設",  "Category2" : "",  "lat" : "34.865337",  "lng" : "135.575554",  "homepage" : "http://www.city.takatsuki.osaka.jp/kakuka/kenkouf/chouju/gyomuannai/sisetunoriyou/kaigokorei/1330069899779.html",  },
    {  "label" : "特別養護老人ホーム　和朗園",  "address" : "高槻市井尻二丁目３７－８",  "telephone" : "072-660-3600",  "fax" : "",  "areacapa" : "",  "peoplecapa" : "",  "Category1" : "高齢者等避難施設",  "Category2" : "",  "lat" : "34.855175",  "lng" : "135.649078",  "homepage" : "http://www.city.takatsuki.osaka.jp/kakuka/kenkouf/chouju/gyomuannai/sisetunoriyou/kaigokorei/1330069899779.html",  },
    {  "label" : "特別養護老人ホーム　樫田の里",  "address" : "高槻市大字田能小字畑子谷１５－１",  "telephone" : "072-680-0001",  "fax" : "",  "areacapa" : "",  "peoplecapa" : "",  "Category1" : "高齢者等避難施設",  "Category2" : "",  "lat" : "34.953084",  "lng" : "135.589609",  "homepage" : "http://www.city.takatsuki.osaka.jp/kakuka/kenkouf/chouju/gyomuannai/sisetunoriyou/kaigokorei/1330069899779.html",  },
    {  "label" : "特別養護老人ホーム　出丸苑",  "address" : "高槻市出丸町４－６２",  "telephone" : "072-676-2830",  "fax" : "",  "areacapa" : "",  "peoplecapa" : "",  "Category1" : "高齢者等避難施設",  "Category2" : "",  "lat" : "34.842675",  "lng" : "135.619199",  "homepage" : "http://www.city.takatsuki.osaka.jp/kakuka/kenkouf/chouju/gyomuannai/sisetunoriyou/kaigokorei/1330069899779.html",  },
    {  "label" : "高槻市立養護老人ホーム",  "address" : "高槻市阿武野二丁目２－２",  "telephone" : "072-696-1134",  "fax" : "",  "areacapa" : "",  "peoplecapa" : "",  "Category1" : "高齢者等避難施設",  "Category2" : "",  "lat" : "34.859751",  "lng" : "135.578933",  "homepage" : "http://www.city.takatsuki.osaka.jp/kakuka/kenkouf/chouju/gyomuannai/sisetunoriyou/kaigokorei/1330043895684.html",  },
    {  "label" : "特別養護老人ホーム　ぐんげ今城の丘",  "address" : "高槻市郡家本町１３－２３",  "telephone" : "072-681-2020",  "fax" : "",  "areacapa" : "",  "peoplecapa" : "",  "Category1" : "高齢者等避難施設",  "Category2" : "",  "lat" : "34.854323",  "lng" : "135.597768",  "homepage" : "http://www.city.takatsuki.osaka.jp/kakuka/kenkouf/chouju/gyomuannai/sisetunoriyou/kaigokorei/1330069899779.html",  },
]